상가업소번호	상호명	상권업종대분류명	상권업종중분류명	상권업종소분류명	지번주소	도로명	구우편번호	신우편번호	경도	위도
3323083	인타임카페	음식	커피점/카페	커피전문점/카페/다방	서울특별시 강서구 마곡동 793-3	서울특별시 강서구 강서로	157210	7794	126.8389312	37.56215704
3148875	위니비니영풍문고김포공항점영풍문고김포공항점	음식	제과제빵떡케익	제과점	서울특별시 강서구 방화동 886	서울특별시 강서구 하늘길	157220	7505	126.80076	37.56595623
3779566	쎄리오	음식	커피점/카페	커피전문점/카페/다방	서울특별시 성동구 행당동 15-1	서울특별시 성동구 마조로	133070	4763	127.0413247	37.5594688
3565940	롯데리아	음식	패스트푸드	패스트푸드	서울특별시 송파구 신천동 29	서울특별시 송파구 올림픽로	138240	5551	127.1042839	37.51363101
3729445	홈플러스	음식	제과제빵떡케익	제과점	서울특별시 은평구 구산동 1-24	서울특별시 은평구 서오릉로	122819	3412	126.9164551	37.61127953
4451292	델리푸드-B	음식	분식	라면김밥분식	서울특별시 광진구 자양동 227-7	서울특별시 광진구 아차산로	143730	5065	127.0729442	37.53699681
3660193	홈플러스	음식	분식	라면김밥분식	서울특별시 강서구 등촌동 639-11	서울특별시 강서구 화곡로	157030	7567	126.8548002	37.55845562
7079815	공차트윈시티점	음식	커피점/카페	커피전문점/카페/다방	서울특별시 용산구 동자동 56	서울특별시 용산구 한강대로	140170	4323	126.9728948	37.55108128
7140106	커피앳웍스트윈시티남산점	음식	커피점/카페	커피전문점/카페/다방	서울특별시 용산구 동자동 56	서울특별시 용산구 한강대로	140170	4323	126.9728948	37.55108128
6633325	델프레소	음식	커피점/카페	커피전문점/카페/다방	서울특별시 강북구 수유동 404-9	서울특별시 강북구 삼양로	142070	1082	127.0173794	37.63660816
4688869	하나원병과	음식	커피점/카페	커피전문점/카페/다방	서울특별시 중구 신당동 340-123	서울특별시 중구 다산로14길	100450	4590	127.0122473	37.55603941
5133712	스타벅스	음식	커피점/카페	커피전문점/카페/다방	서울특별시 강남구 삼성동 159	서울특별시 강남구 영동대로	135798	6164	127.0571003	37.5129394
4697360	브라운백	음식	분식	라면김밥분식	서울특별시 강남구 일원동 716	서울특별시 강남구 광평로19길	135991	6355	127.0847863	37.48552169
5044092	CGV프라임신도림점2	음식	패스트푸드	패스트푸드	서울특별시 구로구 구로동 3-25	서울특별시 구로구 새말로	152725	8288	126.8902076	37.50703804
4726710	서브웨이	음식	패스트푸드	샌드위치전문점	서울특별시 서대문구 창천동 20-41	서울특별시 서대문구 신촌로	120833	3780	126.939278	37.55619932
5373379	광장휴게소	음식	분식	라면김밥분식	서울특별시 관악구 신림동 210	서울특별시 관악구 신림로	151015	8825	126.945497	37.46817767
5296553	코펜바인	음식	분식	라면김밥분식	서울특별시 용산구 이촌동 301-263	서울특별시 용산구 이촌로	140030	4425	126.9803078	37.51782484
2946582	빠빠맹	음식	제과제빵떡케익	제과점	서울특별시 영등포구 양평동3가 78-15	서울특별시 영등포구 선유로	150103	7218	126.8942865	37.53108907
2936303	브루브로스커피	음식	커피점/카페	커피전문점/카페/다방	서울특별시 마포구 서교동 368-30	서울특별시 마포구 잔다리로6길	121893	4042	126.9202346	37.55194498
3054213	그라찌에	음식	커피점/카페	커피전문점/카페/다방	서울특별시 영등포구 양평동5가 20-3	서울특별시 영등포구 양평로21다길	150105	7207	126.8915636	37.53771321
3198962	BHC치킨미래점	음식	닭/오리요리	후라이드/양념치킨	서울특별시 구로구 구로동 1267	서울특별시 구로구 새말로	152765	8288	126.8890886	37.50622559
3182203	간단하지만특별한화피디Cafe	음식	커피점/카페	커피전문점/카페/다방	서울특별시 금천구 가산동 60-73	서울특별시 금천구 벚꽃로	153788	8513	126.8857942	37.47674839
3128818	빈스앤베리즈	음식	커피점/카페	커피전문점/카페/다방	서울특별시 강남구 압구정동 494	서울특별시 강남구 압구정로	135902	6008	127.0400807	37.52849864
3113335	윤희네분식	음식	분식	라면김밥분식	서울특별시 관악구 봉천동 729-32	서울특별시 관악구 보라매로3길	151712	8708	126.9250567	37.4911685
3252812	미식가	음식	분식	라면김밥분식	서울특별시 서초구 방배동 817-35	서울특별시 서초구 방배로31길	137060	6563	126.9893443	37.49028528
3306830	그랜드아쿠아24&휘트니스	음식	분식	라면김밥분식	서울특별시 강서구 화곡동 1095	서울특별시 강서구 화곡로	157010	7649	126.8512794	37.55482629
3354620	소로앤노호	음식	커피점/카페	커피전문점/카페/다방	서울특별시 강남구 대치동 906-20	서울특별시 강남구 역삼로	135280	6197	127.0532176	37.501519
3907337	카페칼디	음식	커피점/카페	커피전문점/카페/다방	서울특별시 구로구 구로동 1258	서울특별시 구로구 경인로53길	152721	8217	126.8760995	37.50202099
3951722	마노핀	음식	커피점/카페	커피전문점/카페/다방	서울특별시 종로구 청진동 70	서울특별시 종로구 종로	110130	3159	126.9814178	37.57095102
3840328	두꺼비분식	음식	분식	라면김밥분식	서울특별시 서초구 서초동 1365-9	서울특별시 서초구 남부순환로	137070	6734	127.0313147	37.48455474
4077573	방이골목떡볶이	음식	분식	떡볶이전문	서울특별시 송파구 방이동 115	서울특별시 송파구 가락로33길	138050	5642	127.1142058	37.50966909
3976912	스마일머그커피	음식	커피점/카페	커피전문점/카페/다방	서울특별시 동대문구 휘경동 71-1	서울특별시 동대문구 망우로	130090	2436	127.0665817	37.59170338
4561634	커피나무	음식	커피점/카페	커피전문점/카페/다방	서울특별시 광진구 자양동 553-20	서울특별시 광진구 뚝섬로	143190	5085	127.0672719	37.5354564
4353746	농부와닭동네	음식	닭/오리요리	후라이드/양념치킨	서울특별시 영등포구 여의도동 21-4	서울특별시 영등포구 여의나루로	150875	7336	126.9307562	37.52604568
4704621	스타벅스	음식	커피점/카페	커피전문점/카페/다방	서울특별시 동대문구 장안동 433-7	서울특별시 동대문구 장한로	130100	2644	127.0654766	37.56234757
4179302	그랑카페	음식	커피점/카페	커피전문점/카페/다방	서울특별시 종로구 청진동 70	서울특별시 종로구 종로	110130	3159	126.9814178	37.57095102
5336488	닥터주스팜	음식	분식	라면김밥분식	서울특별시 성북구 종암동 69-5	서울특별시 성북구 종암로19길	136861	2810	127.0337395	37.59815184
4878264	피자스쿨	음식	패스트푸드	피자전문	서울특별시 동대문구 회기동 76-1	서울특별시 동대문구 회기로	130872	2460	127.0550503	37.59023302
6652055	브레드에그	음식	제과제빵떡케익	제과점	서울특별시 광진구 군자동 363-4	서울특별시 광진구 군자로	143840	5004	127.0711471	37.55051648
6687058	밥&밥	음식	분식	라면김밥분식	서울특별시 강동구 성내동 595	서울특별시 강동구 올림픽로	134030	5391	127.121765	37.53254934
6738963	아람	음식	분식	국수/만두/칼국수	서울특별시 광진구 화양동 18-26	서울특별시 광진구 동일로30길	143916	5008	127.0702105	37.54756268
6660863	스타벅스커리학동사거리점	음식	커피점/카페	커피전문점/카페/다방	서울특별시 강남구 논현동 93-2	서울특별시 강남구 도산대로	135010	6055	127.0379529	37.52239022
6648139	손스커피	음식	커피점/카페	커피전문점/카페/다방	서울특별시 영등포구 신길동 887	서울특별시 영등포구 여의대방로43길	150050	7360	126.921845	37.50612365
7071148	쿡	음식	커피점/카페	커피전문점/카페/다방	서울특별시 서초구 양재동 291-23	서울특별시 서초구 동산로13길	137130	6781	127.0452545	37.47227864
6900889	국수솜씨	음식	분식	국수/만두/칼국수	서울특별시 서초구 방배동 1015	서울특별시 서초구 방배로	137755	6715	127.0024529	37.4764844
6913505	파스쿠찌	음식	커피점/카페	커피전문점/카페/다방	서울특별시 서초구 서초동 1337-32	서울특별시 서초구 강남대로	137070	6627	127.0295709	37.4926139
7155897	빽다방	음식	커피점/카페	커피전문점/카페/다방	서울특별시 강남구 수서동 713	서울특별시 강남구 밤고개로1길	135539	6349	127.1018421	37.48801336
6886539	빈터커피로스터스	음식	커피점/카페	커피전문점/카페/다방	서울특별시 강동구 둔촌동 134-10	서울특별시 강동구 진황도로	134706	5370	127.1433125	37.52720215
7668150	치킨매니아화곡4동점	음식	닭/오리요리	후라이드/양념치킨	서울특별시 강서구 화곡동 781-10	서울특별시 강서구 곰달래로60길	157010	7786	126.8632522	37.53181258
8731719	삼삼치킨	음식	닭/오리요리	후라이드/양념치킨	서울특별시 동대문구 신설동 109-13	서울특별시 동대문구 청계천로	130813	2586	127.0238892	37.57199463
8696892	회화나무로스터스	음식	커피점/카페	커피전문점/카페/다방	서울특별시 서초구 우면동 687-2	서울특별시 서초구 성촌1길	137901	6765	127.0223886	37.4658203
8730433	엔제리너스	음식	커피점/카페	커피전문점/카페/다방	서울특별시 강북구 미아동 55-58	서울특별시 강북구 도봉로10나길	142804	1219	127.030937	37.61341049
8600424	Delibus	음식	분식	라면김밥분식	서울특별시 동작구 신대방동 425	서울특별시 동작구 보라매로5길	156707	7061	126.924318	37.49299992
8731937	엔제리너스강남역사거리점	음식	커피점/카페	커피전문점/카페/다방	서울특별시 강남구 역삼동 824-19	서울특별시 강남구 테헤란로	135080	6233	127.030513	37.49846948
8649214	롯데리아	음식	패스트푸드	패스트푸드	서울특별시 마포구 망원동 377-2	서울특별시 마포구 월드컵로	121230	4012	126.9095099	37.55632458
8602689	밸런스버거	음식	패스트푸드	패스트푸드	서울특별시 성동구 사근동 110	서울특별시 성동구 왕십리로	133817	4763	127.0465947	37.55449264
8676475	한일	음식	커피점/카페	커피전문점/카페/다방	서울특별시 중구 충무로4가 29-3	서울특별시 중구 퇴계로41길	100863	4556	126.9955922	37.56241345
8605533	버거킹고대중앙광장점	음식	패스트푸드	패스트푸드	서울특별시 성북구 안암동5가 1-2	서울특별시 성북구 안암로	136701	2841	127.0317018	37.58848499
8605588	버거킹명일SK점	음식	패스트푸드	패스트푸드	서울특별시 강동구 명일동 305-51	서울특별시 강동구 고덕로	134070	5257	127.1439964	37.55447307
8589568	CAFE담쟁이107	음식	커피점/카페	커피전문점/카페/다방	서울특별시 노원구 중계동 363	서울특별시 노원구 한글비석로8길	139958	1738	127.0783449	37.64783152
8014785	엔제리너스	음식	커피점/카페	커피전문점/카페/다방	서울특별시 광진구 자양동 227-7	서울특별시 광진구 아차산로	143730	5065	127.0729442	37.53699681
8625127	이승남의꽃과빵	음식	제과제빵떡케익	제과점	서울특별시 강남구 압구정동 455	서울특별시 강남구 압구정로29길	135788	6004	127.0291672	37.53252723
8602436	버거킹석촌점	음식	패스트푸드	패스트푸드	서울특별시 송파구 송파동 15-8	서울특별시 송파구 송파대로	138170	5625	127.10637	37.50659153
8626094	한스이촌점	음식	제과제빵떡케익	제과점	서울특별시 용산구 이촌동 301-160	서울특별시 용산구 이촌로	140723	4424	126.979951	37.51827228
8672793	환기미술관휴게실	음식	커피점/카페	커피전문점/카페/다방	서울특별시 종로구 부암동 210-8	서울특별시 종로구 자하문로40길	110817	3020	126.9660986	37.59408265
8622538	영양센터목동점	음식	닭/오리요리	후라이드/양념치킨	서울특별시 양천구 신정동 88-5	서울특별시 양천구 신목로	158070	8010	126.872387	37.52025873
8660654	로봇김밥우면동삼성R&D센터점	음식	분식	라면김밥분식	서울특별시 서초구 우면동 687-2	서울특별시 서초구 성촌1길	137901	6765	127.0223886	37.4658203
8130866	홈플러스베이커리보문점	음식	제과제빵떡케익	제과점	서울특별시 성북구 보문동7가 25-1	서울특별시 성북구 보문로	136087	2873	127.0214197	37.58076836
8590198	국수집	음식	분식	국수/만두/칼국수	서울특별시 서초구 반포동 1-8	서울특별시 서초구 신반포로	137765	6506	126.9999818	37.50495484
8612650	서원	음식	분식	라면김밥분식	서울특별시 용산구 이촌동 300-10	서울특별시 용산구 이촌로88길	140030	4425	126.9786984	37.51804521
8621095	이디야커피	음식	커피점/카페	커피전문점/카페/다방	서울특별시 종로구 연건동 195-11	서울특별시 종로구 대학로	110460	3127	127.0018734	37.57519845
8599689	르보땅	음식	커피점/카페	커피전문점/카페/다방	서울특별시 강동구 암사동 495-4	서울특별시 강동구 올림픽로98길	134050	5262	127.1299167	37.54963061
8630169	17도씨	음식	분식	라면김밥분식	서울특별시 마포구 연남동 257-21	서울특별시 마포구 동교로29길	121865	3984	126.923053	37.56214345
8587116	59피자	음식	패스트푸드	패스트푸드	서울특별시 양천구 신정동 922-34	서울특별시 양천구 오목로	158070	7943	126.8542837	37.52491406
8646269	밥앤밥버거	음식	패스트푸드	패스트푸드	서울특별시 강남구 일원동 615-1	서울특별시 강남구 개포로110길	135946	6337	127.0803184	37.4911817
8606742	서울김밥	음식	분식	라면김밥분식	서울특별시 송파구 석촌동 273	서울특별시 송파구 가락로	138846	5696	127.1053477	37.50032142
8617931	이삭토스트화양점	음식	패스트푸드	패스트푸드	서울특별시 광진구 화양동 11-30	서울특별시 광진구 능동로13길	143914	5016	127.0706975	37.54298016
8611555	서브웨이	음식	분식	라면김밥분식	서울특별시 서대문구 충정로3가 465	서울특별시 서대문구 서소문로	120013	3741	126.9648455	37.5602737
8592638	궁가호떡	음식	분식	라면김밥분식	서울특별시 영등포구 영등포동1가 94-2	서울특별시 영등포구 경인로	150031	7308	126.9124566	37.5178683
8617672	예나	음식	닭/오리요리	후라이드/양념치킨	서울특별시 서대문구 충정로3가 28-1	서울특별시 서대문구 경기대로	120837	3751	126.9614212	37.56234305
8613400	신주	음식	패스트푸드	패스트푸드	서울특별시 종로구 종로5가 103	서울특별시 종로구 종로	110835	3129	127.0004874	37.57133027
8616690	신전떡볶이동대문신당점	음식	분식	떡볶이전문	서울특별시 중구 신당동 239-29	서울특별시 중구 다산로35길	100823	4611	127.0139284	37.56417188
8584946	3분분식	음식	분식	라면김밥분식	서울특별시 구로구 구로동 606-1	서울특별시 구로구 구로중앙로	152050	8216	126.8778923	37.50389418
8618091	이디야커피	음식	커피점/카페	커피전문점/카페/다방	서울특별시 영등포구 대림동 1052-45	서울특별시 영등포구 도림로31길	150070	7415	126.895907	37.49252155
8666054	홈런호프치킨	음식	닭/오리요리	후라이드/양념치킨	서울특별시 동작구 상도동 507-2	서울특별시 동작구 매봉로	156881	7027	126.9516347	37.50787854
8614463	이맛치킨	음식	닭/오리요리	후라이드/양념치킨	서울특별시 은평구 신사동 340-25	서울특별시 은평구 증산로15길	122080	3448	126.9107141	37.58943073
8601264	리틀크레이지피자	음식	패스트푸드	피자전문	서울특별시 서초구 반포동 1048	서울특별시 서초구 신반포로	137040	6548	126.9888424	37.5015081
8613849	이디야커피	음식	커피점/카페	커피전문점/카페/다방	서울특별시 용산구 한강로3가 40-999	서울특별시 용산구 한강대로21나길	140780	4377	126.9632226	37.52790298
8651085	새천년	음식	커피점/카페	커피전문점/카페/다방	서울특별시 영등포구 양평동2가 19-1	서울특별시 영등포구 영등포로	150102	7278	126.8838169	37.52300736
8728071	또래오래	음식	닭/오리요리	후라이드/양념치킨	서울특별시 강남구 대치동 916-17	서울특별시 강남구 삼성로71길	135280	6201	127.0559226	37.50136944
8730737	스타벅스가든파이브	음식	커피점/카페	커피전문점/카페/다방	서울특별시 송파구 문정동 628	서울특별시 송파구 충민로	138200	5840	127.1193706	37.47826065
8637747	테이블에이	음식	분식	라면김밥분식	서울특별시 마포구 창전동 436-7	서울특별시 마포구 와우산로	121882	4059	126.9258874	37.55314087
8622034	이도령치킨호프	음식	닭/오리요리	후라이드/양념치킨	서울특별시 동작구 대방동 502	서울특별시 동작구 노량진로	156760	6940	126.9302523	37.51300299
8690028	다운분식	음식	분식	라면김밥분식	서울특별시 성동구 응봉동 100	서울특별시 성동구 독서당로	133771	4741	127.0322123	37.55078946
8735684	스타벅스	음식	커피점/카페	커피전문점/카페/다방	서울특별시 강남구 역삼동 677-25	서울특별시 강남구 테헤란로	135914	6142	127.0406526	37.50239076
8586780	3분식당	음식	분식	라면김밥분식	서울특별시 구로구 구로동 604-1	서울특별시 구로구 구로중앙로	152723	8216	126.8778923	37.50389418
8736083	스타벅스차병원사거리점	음식	커피점/카페	커피전문점/카페/다방	서울특별시 강남구 논현동 235-11	서울특별시 강남구 봉은사로	135010	6109	127.0353547	37.50804228
8740295	고봉민김밥인	음식	분식	라면김밥분식	서울특별시 중랑구 신내동 656	서울특별시 중랑구 신내로	131788	2025	127.0951226	37.61460491
8709125	삼청동호떡	음식	제과제빵떡케익	제과점	서울특별시 종로구 화동 138-16	서울특별시 종로구 율곡로3길	110210	3061	126.9824716	37.57919562
8652490	달콤한닭강정	음식	닭/오리요리	후라이드/양념치킨	서울특별시 강북구 미아동 775-42	서울특별시 강북구 솔매로	142814	1168	127.0188152	37.62478052
8639700	테이블에이	음식	분식	라면김밥분식	서울특별시 마포구 동교동 188-27	서울특별시 마포구 와우산로32길	121899	4061	126.9313416	37.5547852
8687897	라떼킹	음식	커피점/카페	커피전문점/카페/다방	서울특별시 강북구 수유동 567-6	서울특별시 강북구 419로	142070	1014	127.0096618	37.64697759
8495618	더치터치커피	음식	커피점/카페	커피전문점/카페/다방	서울특별시 강서구 마곡동 793-6	서울특별시 강서구 강서로	157210	7794	126.8387893	37.56182226
8708088	엠케이치킨앤드호프	음식	닭/오리요리	후라이드/양념치킨	서울특별시 영등포구 대림동 777-1	서울특별시 영등포구 대림로31길	150764	7411	126.8946252	37.49586146
8697454	커피빈	음식	커피점/카페	커피전문점/카페/다방	서울특별시 종로구 동숭동 1-95	서울특별시 종로구 대학로12길	110809	3086	127.0036928	37.58139497
8587095	59피자상계7단지점	음식	패스트푸드	패스트푸드	서울특별시 노원구 상계동 581-6	서울특별시 노원구 상계로1길	139200	1693	127.0615181	37.65943933
8587128	59피자	음식	패스트푸드	피자전문	서울특별시 성동구 행당동 346	서울특별시 성동구 행당로	133777	4717	127.0287309	37.55656361
8879799	비오치킨	음식	닭/오리요리	후라이드/양념치킨	서울특별시 영등포구 도림동 195-1	서울특별시 영등포구 도영로	150832	7364	126.8993691	37.51166502
8917557	산들김밥	음식	분식	라면김밥분식	서울특별시 서초구 서초동 1580-6	서울특별시 서초구 사임당로	137070	6649	127.0124665	37.48792183
8791896	동키치킨	음식	닭/오리요리	후라이드/양념치킨	서울특별시 도봉구 쌍문동 45-6	서울특별시 도봉구 해등로	132030	1394	127.0368435	37.65776275
8921308	커피빈	음식	커피점/카페	커피전문점/카페/다방	서울특별시 강남구 삼성동 77-11	서울특별시 강남구 영동대로	135090	6087	127.0594668	37.51455313
8732182	스타벅스뱅뱅사거리점	음식	커피점/카페	커피전문점/카페/다방	서울특별시 강남구 도곡동 946-14	서울특별시 강남구 강남대로	135270	6258	127.032473	37.48855591
8899526	카페인	음식	커피점/카페	커피전문점/카페/다방	서울특별시 마포구 도화동 353	서울특별시 마포구 새창로8길	121773	4180	126.9511127	37.53870769
8851295	디에즈코리아	음식	패스트푸드	패스트푸드	서울특별시 광진구 자양동 227-7	서울특별시 광진구 아차산로	143730	5065	127.0729816	37.53854692
8802422	피자스쿨	음식	패스트푸드	피자전문	서울특별시 동대문구 회기동 76-10	서울특별시 동대문구 회기로	130872	2460	127.0548344	37.59029437
8856731	도미노피자상암점	음식	패스트푸드	패스트푸드	서울특별시 마포구 상암동 34-46	서울특별시 마포구 월드컵북로	121830	3930	126.8946636	37.57604533
8899253	피자스쿨면목점	음식	패스트푸드	패스트푸드	서울특별시 중랑구 면목동 115-1	서울특별시 중랑구 겸재로	131200	2219	127.0874487	37.58817227
8764859	원산만두	음식	분식	국수/만두/칼국수	서울특별시 송파구 송파동 145-13	서울특별시 송파구 백제고분로46길	138170	5663	127.1151986	37.50701841
8774827	파파존스피자미아점	음식	패스트푸드	패스트푸드	서울특별시 강북구 미아동 304-1	서울특별시 강북구 도봉로	142812	1170	127.0259703	37.62599312
8893511	빵굼터	음식	제과제빵떡케익	제과점	서울특별시 동작구 동작동 104-1	서울특별시 동작구 동작대로45길	156080	6994	126.9815596	37.49729169
8899180	카페리노	음식	커피점/카페	커피전문점/카페/다방	서울특별시 노원구 하계동 354	서울특별시 노원구 동일로207길	139734	1775	127.059783	37.63794485
8635755	국수나무	음식	분식	국수/만두/칼국수	서울특별시 송파구 장지동 879	서울특별시 송파구 위례광장로	138926	5848	127.1393107	37.47962403
8610393	베네	음식	커피점/카페	커피전문점/카페/다방	서울특별시 성동구 금호동4가 575	서울특별시 성동구 독서당로	133809	4737	127.0214668	37.54774546
8566728	커피베이	음식	커피점/카페	커피전문점/카페/다방	서울특별시 강서구 마곡동 776-4	서울특별시 강서구 강서로	157210	7791	126.8405683	37.56753426
8589977	COFFEEFARM	음식	커피점/카페	커피전문점/카페/다방	서울특별시 종로구 숭인동 65-12	서울특별시 종로구 지봉로	110550	3109	127.0158275	37.57554989
8588926	BHC치킨위례점	음식	닭/오리요리	후라이드/양념치킨	서울특별시 송파구 장지동 879	서울특별시 송파구 위례광장로	138926	5848	127.1393107	37.47962403
8632711	국수나무	음식	분식	국수/만두/칼국수	서울특별시 서대문구 충정로3가 465	서울특별시 서대문구 서소문로	120013	3741	126.9648455	37.5602737
8753149	둘리분식	음식	분식	라면김밥분식	서울특별시 중구 신당동 363-10	서울특별시 중구 동호로11길	100450	4599	127.0090463	37.55332747
8935219	엄마손한분식	음식	분식	라면김밥분식	서울특별시 노원구 상계동 1279	서울특별시 노원구 노원로28길	139895	1704	127.0689959	37.6541915
8867964	몽블랑제	음식	제과제빵떡케익	제과점	서울특별시 금천구 독산동 291-7	서울특별시 금천구 시흥대로	153010	8584	126.8968686	37.46865276
8902164	피자알볼로	음식	패스트푸드	피자전문	서울특별시 노원구 중계동 360-15	서울특별시 노원구 노원로22길	139790	1744	127.0758656	37.64855097
8883137	동희분식	음식	분식	라면김밥분식	서울특별시 은평구 응암동 603-14	서울특별시 은평구 응암로4길	122010	3478	126.917126	37.58687673
8798613	카페아네	음식	커피점/카페	커피전문점/카페/다방	서울특별시 강동구 길동 244-2	서울특별시 강동구 진황도로49길	134815	5356	127.1407956	37.53456353
8886564	카페7그램	음식	커피점/카페	커피전문점/카페/다방	서울특별시 종로구 공평동 120-2	서울특별시 종로구 우정국로	110160	3158	126.9828339	37.57170208
8789085	빌리엔젤	음식	커피점/카페	커피전문점/카페/다방	서울특별시 용산구 한강로3가 40-999	서울특별시 용산구 한강대로21나길	140780	4377	126.9647243	37.5297633
8886641	카페느림	음식	커피점/카페	커피전문점/카페/다방	서울특별시 마포구 상수동 341-6	서울특별시 마포구 와우산로3길	121829	4074	126.92212	37.54597931
8891886	빙가	음식	분식	라면김밥분식	서울특별시 강북구 우이동 71-35	서울특별시 강북구 삼양로	142892	1009	127.0126211	37.65112912
8696922	커피빈코리아압구정에스점	음식	커피점/카페	커피전문점/카페/다방	서울특별시 강남구 신사동 660-1	서울특별시 강남구 압구정로46길	135897	6018	127.0368931	37.52827446
8732314	스타벅스	음식	커피점/카페	커피전문점/카페/다방	서울특별시 강남구 역삼동 678-39	서울특별시 강남구 테헤란로	135080	6141	127.0392228	37.50187455
8725994	스타벅스	음식	커피점/카페	커피전문점/카페/다방	서울특별시 성북구 길음동 20-1	서울특별시 성북구 동소문로	136719	2730	127.0287256	37.60839154
8729351	스타벅스	음식	커피점/카페	커피전문점/카페/다방	서울특별시 강남구 역삼동 809-10	서울특별시 강남구 강남대로	135080	6123	127.0255555	37.5031322
8736085	스타벅스경복아파트점	음식	커피점/카페	커피전문점/카페/다방	서울특별시 강남구 역삼동 681	서울특별시 강남구 봉은사로	135080	6143	127.0403528	37.50902009
8901237	카페르메이에르	음식	커피점/카페	커피전문점/카페/다방	서울특별시 송파구 장지동 880-1	서울특별시 송파구 위례광장로	138926	5849	127.1427697	37.48167657
8723998	뉴코아가든파이브얌차	음식	분식	국수/만두/칼국수	서울특별시 송파구 문정동 634	서울특별시 송파구 충민로	138200	5838	127.124941	37.47760822
8619922	신전떡볶이	음식	분식	떡볶이전문	서울특별시 강북구 미아동 49-102	서울특별시 강북구 오패산로	142100	1222	127.034774	37.61186512
8727999	고려당분점	음식	제과제빵떡케익	제과점	서울특별시 중구 신당동 310-1	서울특별시 중구 다산로28가길	100450	4589	127.0141133	37.55958711
8716927	죠스떡볶이	음식	분식	라면김밥분식	서울특별시 구로구 개봉동 202-19	서울특별시 구로구 남부순환로97길	152090	8328	126.8585578	37.49386955
8816066	피자스쿨	음식	패스트푸드	피자전문	서울특별시 노원구 상계동 728-3	서울특별시 노원구 동일로	139200	1751	127.0614895	37.65270838
8762720	커피에비뉴	음식	커피점/카페	커피전문점/카페/다방	서울특별시 송파구 잠실동 19-9	서울특별시 송파구 올림픽로	138220	5501	127.084168	37.51208012
8729232	엔제리너스	음식	커피점/카페	커피전문점/카페/다방	서울특별시 중구 명동1가 59-12	서울특별시 중구 명동3길	100021	4534	126.983684	37.56412263
8767350	커피마마	음식	커피점/카페	커피전문점/카페/다방	서울특별시 동대문구 전농동 1-205	서울특별시 동대문구 한천로	130020	2512	127.0685875	37.58249252
8810389	동대문엽기떡볶이	음식	분식	떡볶이전문	서울특별시 종로구 공평동 124	서울특별시 종로구 삼봉로	110160	3158	126.9826953	37.57190813
8853084	도미노피자신용산점	음식	패스트푸드	피자전문	서울특별시 용산구 한강로3가 65-426	서울특별시 용산구 서빙고로	140883	4388	126.9687186	37.52397748
8853088	도미노피자	음식	패스트푸드	패스트푸드	서울특별시 영등포구 영등포동 623-6	서울특별시 영등포구 영신로9길	150030	7368	126.9061671	37.5116651
8933198	네네치킨암사2점	음식	닭/오리요리	후라이드/양념치킨	서울특별시 강동구 암사동 103-1	서울특별시 강동구 올림픽로112길	134050	5207	127.1343926	37.56381906
8933200	네네치킨중곡2호점	음식	닭/오리요리	후라이드/양념치킨	서울특별시 광진구 중곡동 625-1	서울특별시 광진구 동일로64길	143220	4917	127.0753794	37.56062344
8768317	어쨌거나1MM	음식	커피점/카페	커피전문점/카페/다방	서울특별시 종로구 부암동 269-8	서울특별시 종로구 창의문로5길	110817	3022	126.9638143	37.5922245
8830191	충무칼국수	음식	분식	라면김밥분식	서울특별시 서초구 잠원동 45-14	서울특별시 서초구 신반포로43길	137906	6532	127.0174383	37.51063381
8782172	빵굽는쉐프	음식	제과제빵떡케익	제과점	서울특별시 노원구 하계동 284	서울특별시 노원구 공릉로	139937	1784	127.0680177	37.63815435
8879238	강정이기가막혀	음식	닭/오리요리	후라이드/양념치킨	서울특별시 송파구 송파동 111-28	서울특별시 송파구 송파대로42길	138170	5666	127.110159	37.50564698
8816617	우정죽	음식	분식	라면김밥분식	서울특별시 종로구 적선동 80	서울특별시 종로구 사직로	110756	3170	126.9733086	37.57535894
8926270	맥도날드	음식	패스트푸드	패스트푸드	서울특별시 성동구 성수동2가 333-16	서울특별시 성동구 뚝섬로	133120	4781	127.053479	37.53992399
8795038	남산떡집	음식	제과제빵떡케익	제과점	서울특별시 중구 신당동 432-716	서울특별시 중구 다산로	100450	4600	127.0073116	37.55015023
8904875	강정이기가막혀	음식	닭/오리요리	후라이드/양념치킨	서울특별시 성동구 성수동2가 573-7	서울특별시 성동구 성덕정길	133120	4777	127.0574793	37.53676627
8761802	하이꼬꼬	음식	닭/오리요리	후라이드/양념치킨	서울특별시 성동구 옥수동 560	서울특별시 성동구 독서당로40길	133100	4739	127.0178663	37.54184074
8811138	나임북카페	음식	커피점/카페	커피전문점/카페/다방	서울특별시 송파구 장지동 879	서울특별시 송파구 위례광장로	138926	5848	127.1393107	37.47962403
8773843	권석영의미스터짱닭치킨신대방2호점	음식	닭/오리요리	후라이드/양념치킨	서울특별시 동작구 신대방동 588-6	서울특별시 동작구 신대방길	156010	7068	126.9082959	37.49053725
8757880	위카페	음식	커피점/카페	커피전문점/카페/다방	서울특별시 송파구 장지동 880-1	서울특별시 송파구 위례광장로	138926	5849	127.1427697	37.48167657
8747745	코피발리	음식	커피점/카페	커피전문점/카페/다방	서울특별시 종로구 이화동 61-8	서울특별시 종로구 이화장1길	110500	3088	127.0046544	37.57719522
8924110	네네치킨대방점	음식	닭/오리요리	후라이드/양념치킨	서울특별시 동작구 대방동 502	서울특별시 동작구 노량진로	156760	6940	126.9302523	37.51300299
8859707	명동칼국수	음식	분식	국수/만두/칼국수	서울특별시 중구 순화동 1-5	서울특별시 중구 통일로4길	100130	4516	126.9689462	37.56413901
8810507	카페드플로르	음식	커피점/카페	커피전문점/카페/다방	서울특별시 송파구 삼전동 3-3	서울특별시 송파구 삼전로	138837	5599	127.0900749	37.50630493
8753967	피자헛성신여대점	음식	패스트푸드	패스트푸드	서울특별시 성북구 동선동1가 85-80	서울특별시 성북구 동소문로20나길	136051	2845	127.017952	37.59221883
8818506	추억의홍두께칼국수	음식	분식	국수/만두/칼국수	서울특별시 성동구 마장동 793-1	서울특별시 성동구 마장로40길	133816	4758	127.0433472	37.56505367
8807610	빈스빈스	음식	커피점/카페	커피전문점/카페/다방	서울특별시 중구 충무로1가 23-1	서울특별시 중구 명동8나길	100011	4536	126.9841691	37.56174806
8802706	카페버즈앤벅스	음식	커피점/카페	커피전문점/카페/다방	서울특별시 중구 정동 32-1	서울특별시 중구 정동길	100120	4516	126.9713066	37.56616892
8798873	하나모리	음식	분식	라면김밥분식	서울특별시 금천구 독산동 291-7	서울특별시 금천구 시흥대로	153010	8584	126.8968686	37.46865276
8586537	365가마솥떡볶이	음식	분식	떡볶이전문	서울특별시 송파구 문정동 634	서울특별시 송파구 충민로	138200	5838	127.124941	37.47760822
8727574	뚜레쥬르대림3동점	음식	제과제빵떡케익	제과점	서울특별시 영등포구 대림동 688-1	서울특별시 영등포구 가마산로	150070	7401	126.8981716	37.50002138
8688482	라멘토모	음식	분식	라면김밥분식	서울특별시 마포구 상수동 95-3	서울특별시 마포구 독막로19길	121828	4067	126.9254617	37.54810919
8693572	바지락손칼국수	음식	분식	라면김밥분식	서울특별시 성북구 안암동1가 144	서울특별시 성북구 인촌로7다길	136071	2850	127.0215338	37.58848223
8848483	깐부치킨	음식	닭/오리요리	후라이드/양념치킨	서울특별시 강남구 역삼동 799-18	서울특별시 강남구 논현로63길	135080	6256	127.0388821	37.49227553
8817619	치킨밸리	음식	닭/오리요리	후라이드/양념치킨	서울특별시 도봉구 방학동 734	서울특별시 도봉구 해등로	132767	1363	127.0269146	37.65782542
8820587	소월길커피	음식	커피점/카페	커피전문점/카페/다방	서울특별시 용산구 후암동 445-8	서울특별시 용산구 소월로2길	140903	4326	126.976661	37.55373602
8797699	카페베네고려대중앙광장점	음식	커피점/카페	커피전문점/카페/다방	서울특별시 성북구 안암동5가 1-2	서울특별시 성북구 안암로	136701	2841	127.0317018	37.58848499
8805765	동아커피호프	음식	커피점/카페	커피전문점/카페/다방	서울특별시 강동구 천호동 298-4	서울특별시 강동구 구천면로	134020	5325	127.1323428	37.5443773
8878451	모스키친NC	음식	패스트푸드	패스트푸드	서울특별시 송파구 문정동 634	서울특별시 송파구 충민로	138200	5838	127.124941	37.47760822
8806957	카페로빈	음식	커피점/카페	커피전문점/카페/다방	서울특별시 강남구 세곡동 516	서울특별시 강남구 헌릉로590길	135190	6365	127.1039675	37.46437658
8809676	동대문엽기떡볶이	음식	분식	떡볶이전문	서울특별시 광진구 자양동 680-2	서울특별시 광진구 자양로	143190	5051	127.0840793	37.53599343
8858984	분식전문점야무지게	음식	분식	라면김밥분식	서울특별시 광진구 자양동 516-3	서울특별시 광진구 뚝섬로37길	143190	5070	127.0717695	37.53500527
8926934	조커커피	음식	커피점/카페	커피전문점/카페/다방	서울특별시 마포구 상수동 264	서울특별시 마포구 토정로	121828	4075	126.9258273	37.5454995
8913788	파파존스피자	음식	패스트푸드	피자전문	서울특별시 광진구 광장동 326-16	서울특별시 광진구 아차산로	143808	4969	127.1065104	37.54698693
8839065	카페베네화곡중앙점	음식	커피점/카페	커피전문점/카페/다방	서울특별시 강서구 화곡동 24-484	서울특별시 강서구 화곡로	157010	7679	126.8449173	37.54539347
8839068	깐부치킨공덕래미안점	음식	닭/오리요리	후라이드/양념치킨	서울특별시 마포구 공덕동 469	서울특별시 마포구 마포대로	121918	4131	126.9538038	37.55018382
8899059	얌차	음식	분식	라면김밥분식	서울특별시 구로구 구로동 573	서울특별시 구로구 구로중앙로	152715	8292	126.8824086	37.50137804
8868661	목동망개떡	음식	제과제빵떡케익	제과점	서울특별시 양천구 신정동 323-9	서울특별시 양천구 목동서로	158763	8093	126.8623496	37.51599967
8820232	치킨뱅이	음식	닭/오리요리	후라이드/양념치킨	서울특별시 영등포구 여의도동 13-22	서울특별시 영등포구 국회대로72길	150870	7238	126.9212477	37.52954536
8889951	빈트리	음식	커피점/카페	커피전문점/카페/다방	서울특별시 노원구 월계동 18	서울특별시 노원구 마들로1가길	139956	1913	127.0675173	37.61744453
8865730	블렌드13	음식	커피점/카페	커피전문점/카페/다방	서울특별시 금천구 가산동 664	서울특별시 금천구 가산디지털1로	153778	8591	126.8876477	37.46840413
8882517	동해골뱅이하우스	음식	분식	라면김밥분식	서울특별시 영등포구 도림동 292-1	서울특별시 영등포구 도영로11길	150833	7373	126.8962964	37.51062718
8890607	카페쏘도베	음식	커피점/카페	커피전문점/카페/다방	서울특별시 강남구 역삼동 642	서울특별시 강남구 테헤란로25길	135080	6132	127.0354874	37.5012404
8790565	미가래남영점	음식	분식	라면김밥분식	서울특별시 용산구 갈월동 98-1	서울특별시 용산구 한강대로77길	140807	4322	126.9721181	37.54170366
8895274	수근이네닭강정	음식	닭/오리요리	후라이드/양념치킨	서울특별시 송파구 잠실동 1-2	서울특별시 송파구 백제고분로	138220	5500	127.0764903	37.51920175
8854464	깐부치킨	음식	닭/오리요리	후라이드/양념치킨	서울특별시 성북구 안암동5가 103-25	서울특별시 성북구 인촌로26길	136075	2856	127.0298382	37.58550525
8879486	갈앤떡	음식	제과제빵떡케익	제과점	서울특별시 마포구 상암동 11-28	서울특별시 마포구 월드컵북로44길	121830	3927	126.8935283	37.57779171
8805693	카페산다	음식	커피점/카페	커피전문점/카페/다방	서울특별시 관악구 봉천동 1625-4	서울특별시 관악구 낙성대로	151050	8790	126.9584311	37.47703261
8805811	카페스윗	음식	커피점/카페	커피전문점/카페/다방	서울특별시 은평구 수색동 110-1	서울특별시 은평구 은평터널로	122874	3489	126.8957995	37.58268757
8766717	원효로COFFEE	음식	커피점/카페	커피전문점/카페/다방	서울특별시 용산구 원효로1가 28-19	서울특별시 용산구 원효로	140846	4316	126.9669983	37.53879366
8799338	피자꾼	음식	패스트푸드	패스트푸드	서울특별시 노원구 상계동 720-7	서울특별시 노원구 노원로	139200	1752	127.0669556	37.65422043
8861001	브루클린더버거조인트	음식	패스트푸드	패스트푸드	서울특별시 강남구 삼성동 146-23	서울특별시 강남구 봉은사로84길	135090	6163	127.0555547	37.51261168
8900309	야미또치킨	음식	닭/오리요리	후라이드/양념치킨	서울특별시 중랑구 중화동 295-21	서울특별시 중랑구 동일로	131120	2094	127.0803724	37.59824509
8850848	디마떼오대학로점	음식	패스트푸드	패스트푸드	서울특별시 종로구 동숭동 1-141	서울특별시 종로구 동숭길	110809	3086	127.003915	37.58000924
8898910	빈스빈스	음식	커피점/카페	커피전문점/카페/다방	서울특별시 서대문구 충정로3가 465	서울특별시 서대문구 서소문로	120013	3741	126.9648455	37.5602737
8797748	피자엔	음식	패스트푸드	피자전문	서울특별시 노원구 하계동 284	서울특별시 노원구 공릉로	139937	1784	127.0680177	37.63815435
8874755	안주마을	음식	분식	라면김밥분식	서울특별시 관악구 봉천동 913-37	서울특별시 관악구 남부순환로	151050	8785	126.9452601	37.48181749
8886930	카페도쎄	음식	커피점/카페	커피전문점/카페/다방	서울특별시 성동구 행당동 346	서울특별시 성동구 행당로	133777	4717	127.0287309	37.55656361
8897389	피자마루옥수역점	음식	패스트푸드	피자전문	서울특별시 성동구 옥수동 560	서울특별시 성동구 독서당로40길	133100	4739	127.0179818	37.54166149
8931076	유림손칼국수	음식	분식	국수/만두/칼국수	서울특별시 동대문구 제기동 289-1	서울특별시 동대문구 제기로	130862	2480	127.0413857	37.58650064
8933127	쉴만한물가	음식	커피점/카페	커피전문점/카페/다방	서울특별시 중랑구 면목동 584-4	서울특별시 중랑구 면목로49길	131200	2227	127.0843772	37.58286835
8775188	코코호도	음식	제과제빵떡케익	제과점	서울특별시 서대문구 신촌동 134	서울특별시 서대문구 연세로	120749	3722	126.9429168	37.56380069
8769391	커피베이	음식	커피점/카페	커피전문점/카페/다방	서울특별시 성동구 행당동 346	서울특별시 성동구 행당로	133777	4717	127.0301602	37.55718808
8890525	카페에스파니	음식	커피점/카페	커피전문점/카페/다방	서울특별시 영등포구 여의도동 13-22	서울특별시 영등포구 국회대로72길	150870	7238	126.9212477	37.52954536
8847875	가마로강정	음식	닭/오리요리	후라이드/양념치킨	서울특별시 용산구 이촌동 301-10	서울특별시 용산구 이촌로75길	140030	4423	126.9743481	37.52017002
8862769	명동칼국수	음식	분식	국수/만두/칼국수	서울특별시 구로구 구로동 604-1	서울특별시 구로구 구로중앙로	152723	8216	126.8778923	37.50389418
8759944	KFC	음식	패스트푸드	패스트푸드	서울특별시 성동구 행당동 168-151	서울특별시 성동구 왕십리광장로	133070	4750	127.0383792	37.56143616
8816283	피자스쿨길음역점	음식	패스트푸드	피자전문	서울특별시 성북구 길음동 1276	서울특별시 성북구 동소문로	136757	2735	127.0245205	37.60342818
8824016	치킨마루제기점	음식	닭/오리요리	후라이드/양념치킨	서울특별시 동대문구 용두동 712-68	서울특별시 동대문구 왕산로	130819	2566	127.0351102	37.57794366
8815796	보성테크	음식	커피점/카페	커피전문점/카페/다방	서울특별시 송파구 잠실동 1-2	서울특별시 송파구 백제고분로	138220	5500	127.0764903	37.51920175
2984503	맘씨커피	음식	커피점/카페	커피전문점/카페/다방	서울특별시 관악구 봉천동 1598-21	서울특별시 관악구 관악로	151050	8788	126.952512	37.4782778
8924425	커피정원	음식	커피점/카페	커피전문점/카페/다방	서울특별시 노원구 상계동 1116-39	서울특별시 노원구 동일로242라길	139200	1626	127.0574915	37.67581502
2914222	토프레소	음식	커피점/카페	커피전문점/카페/다방	서울특별시 관악구 봉천동 1729	서울특별시 관악구 청림3길	151050	8731	126.9594912	37.4886385
8845848	가마로강정	음식	닭/오리요리	후라이드/양념치킨	서울특별시 영등포구 영등포동 618-385	서울특별시 영등포구 영신로19길	150899	7366	126.9059433	37.51382553
8772218	미스터피자	음식	패스트푸드	피자전문	서울특별시 강남구 역삼동 644-11	서울특별시 강남구 테헤란로25길	135080	6131	127.0350101	37.50141671
8762078	커피에반하다	음식	커피점/카페	커피전문점/카페/다방	서울특별시 서초구 서초동 1315	서울특별시 서초구 서초대로	137776	6617	127.0236438	37.49707034
8869637	손가네곰국수	음식	분식	라면김밥분식	서울특별시 성북구 성북동1가 120-7	서울특별시 성북구 창경궁로35다길	136023	2880	127.002049	37.59087805
8903623	카페베네가양역점	음식	커피점/카페	커피전문점/카페/다방	서울특별시 강서구 가양동 1479-9	서울특별시 강서구 양천로57길	157200	7527	126.8511902	37.56358346
8922004	커피베이	음식	커피점/카페	커피전문점/카페/다방	서울특별시 강동구 둔촌동 427-4	서울특별시 강동구 양재대로102길	134060	5362	127.1399385	37.5323497
8892004	동키치킨	음식	닭/오리요리	후라이드/양념치킨	서울특별시 성북구 정릉동 16-175	서울특별시 성북구 정릉로38길	136100	2816	127.0186822	37.60214535
8898070	피자스쿨	음식	패스트푸드	피자전문	서울특별시 동작구 노량진동 50-2	서울특별시 동작구 장승배기로	156050	6924	126.9403859	37.51230142
8922293	커피마마	음식	커피점/카페	커피전문점/카페/다방	서울특별시 중랑구 망우동 531-39	서울특별시 중랑구 용마산로	131230	2175	127.0976083	37.59168336
8826202	치킨마루고척그린점	음식	닭/오리요리	후라이드/양념치킨	서울특별시 구로구 개봉동 124-13	서울특별시 구로구 고척로	152090	8247	126.8479792	37.50229972
8843215	명동손칼국수	음식	분식	국수/만두/칼국수	서울특별시 양천구 목동 616-4	서울특별시 양천구 목동중앙북로6길	158050	7950	126.8649944	37.54824623
8805129	피자스쿨	음식	패스트푸드	피자전문	서울특별시 동작구 신대방동 345-3	서울특별시 동작구 보라매로	156010	7060	126.9276986	37.49778819
8744045	둘둘치킨방학점	음식	닭/오리요리	후라이드/양념치킨	서울특별시 도봉구 방학동 274	서울특별시 도봉구 도당로	132755	1384	127.0337464	37.66149472
8815720	카페드롭탑	음식	커피점/카페	커피전문점/카페/다방	서울특별시 마포구 서교동 403-17	서울특별시 마포구 어울마당로	121895	4048	126.92051	37.54932548
3245038	페리카나	음식	닭/오리요리	후라이드/양념치킨	서울특별시 노원구 월계동 600	서울특별시 노원구 월계로49길	139050	1880	127.0561986	37.62930231
3697290	어우동	음식	분식	국수/만두/칼국수	서울특별시 서초구 반포동 19-4	서울특별시 서초구 신반포로	137040	6545	127.0068163	37.50642716
3672758	GS25	음식	커피점/카페	커피전문점/카페/다방	서울특별시 종로구 서린동 154-1	서울특별시 종로구 종로	110110	3187	126.9780823	37.56983193
3537365	올떡복이	음식	분식	떡볶이전문	서울특별시 강서구 가양동 1488	서울특별시 강서구 허준로	157201	7532	126.8602462	37.56130152
3096187	홈플러스베이커리송파점	음식	제과제빵떡케익	제과점	서울특별시 송파구 송파동 150-2	서울특별시 송파구 가락로28길	138170	5671	127.1167219	37.50636303
3891507	뉴욕베이커리카페	음식	커피점/카페	커피전문점/카페/다방	서울특별시 서대문구 충정로3가 1-7	서울특별시 서대문구 경기대로	120837	3752	126.9620973	37.56337618
4119889	공차명동점	음식	커피점/카페	커피전문점/카페/다방	서울특별시 중구 명동1가 46-3	서울특별시 중구 명동7길	100021	4534	126.9844509	37.56433647
4119982	카페코나퀸즈	음식	커피점/카페	커피전문점/카페/다방	서울특별시 종로구 관철동 266	서울특별시 종로구 청계천로	110111	3189	126.9836063	37.56901462
3918098	아모르파티	음식	커피점/카페	커피전문점/카페/다방	서울특별시 강서구 염창동 249-3	서울특별시 강서구 양천로	157861	7540	126.873421	37.55078676
3866462	OZ의마법카페	음식	커피점/카페	커피전문점/카페/다방	서울특별시 관악구 봉천동 951-25	서울특별시 관악구 은천로	151050	8749	126.9383615	37.48591856
4417578	이즘	음식	커피점/카페	커피전문점/카페/다방	서울특별시 성북구 종암동 29-28	서울특별시 성북구 북악산로	136858	2841	127.0358296	37.59239326
4267333	더클럽객석2층	음식	패스트푸드	패스트푸드	서울특별시 강남구 역삼동 679	서울특별시 강남구 논현로	135080	6141	127.0372774	37.50188574
4879992	팝콘팩토리	음식	패스트푸드	패스트푸드	서울특별시 영등포구 여의도동 23	서울특별시 영등포구 국제금융로	150945	7326	126.9248631	37.52517222
4529547	마니안느	음식	커피점/카페	커피전문점/카페/다방	서울특별시 종로구 명륜4가 154-13	서울특별시 종로구 창경궁로26길	110524	3079	126.9994414	37.58181854
4550924	연다라	음식	커피점/카페	커피전문점/카페/다방	서울특별시 관악구 신림동 1669-10	서울특별시 관악구 남부순환로	151904	8765	126.9044546	37.48023875
4989550	오븐마루	음식	닭/오리요리	후라이드/양념치킨	서울특별시 영등포구 여의도동 50	서울특별시 영등포구 63로	150761	7344	126.9373054	37.52134727
5261385	훌랄라참숯바베큐	음식	닭/오리요리	후라이드/양념치킨	서울특별시 노원구 중계동 142-39	서울특별시 노원구 한글비석로20길	139220	1662	127.0739379	37.66051061
6673129	김밥동아리	음식	분식	라면김밥분식	서울특별시 용산구 이촌동 206-27	서울특별시 용산구 이촌로14길	140030	4374	126.9543079	37.52705849
6704683	파시아	음식	제과제빵떡케익	케익전문점	서울특별시 마포구 서교동 395-152	서울특별시 마포구 양화로12길	121840	4043	126.9175113	37.55165875
6969488	공차	음식	커피점/카페	커피전문점/카페/다방	서울특별시 서초구 반포동 19-4	서울특별시 서초구 신반포로	137040	6545	127.0068163	37.50642716
6924435	커피빈	음식	커피점/카페	커피전문점/카페/다방	서울특별시 영등포구 여의도동 34-12	서울특별시 영등포구 국제금융로8길	150884	7330	126.9296855	37.52180107
8460486	황칠가	음식	커피점/카페	커피전문점/카페/다방	서울특별시 마포구 서교동 464-57	서울특별시 마포구 동교로	121842	4030	126.9175095	37.55491148
8957805	떡볶이사우루스	음식	분식	떡볶이전문	서울특별시 서대문구 북가좌동 484	서울특별시 서대문구 수색로6길	120130	3709	126.9125456	37.57094938
8983343	반장즉석떡볶이서래점	음식	분식	라면김밥분식	서울특별시 서초구 반포동 91-10	서울특별시 서초구 서래로	137040	6577	126.9984979	37.49834657
8948464	민속전	음식	분식	라면김밥분식	서울특별시 도봉구 도봉동 95-73	서울특별시 도봉구 마들로	132010	1325	127.046827	37.67293612
9003898	오지개	음식	분식	라면김밥분식	서울특별시 마포구 망원동 414-108	서울특별시 마포구 포은로6길	121230	4011	126.9063231	37.55598875
8958605	밀향기칼국수	음식	분식	라면김밥분식	서울특별시 송파구 풍납동 399-20	서울특별시 송파구 올림픽로45길	138040	5537	127.1160555	37.52738874
8986432	샤론	음식	커피점/카페	커피전문점/카페/다방	서울특별시 영등포구 신길동 99-5	서울특별시 영등포구 영등포로	150050	7318	126.9197383	37.51417777
8987291	신라명과	음식	제과제빵떡케익	제과점	서울특별시 서대문구 충정로3가 465	서울특별시 서대문구 서소문로	120013	3741	126.9648455	37.5602737
8955608	삼도커피숍	음식	커피점/카페	커피전문점/카페/다방	서울특별시 중구 순화동 1-5	서울특별시 중구 통일로4길	100130	4516	126.9689462	37.56413901
8992026	이가네칼국수	음식	분식	국수/만두/칼국수	서울특별시 영등포구 당산동3가 62	서울특별시 영등포구 양산로23길	150803	7259	126.8976538	37.52446185
8959409	밀벌칼국수	음식	분식	국수/만두/칼국수	서울특별시 성북구 보문동7가 32-2	서울특별시 성북구 보문로	136087	2873	127.0216836	37.58050024
8954665	퀴클리	음식	커피점/카페	커피전문점/카페/다방	서울특별시 영등포구 신길동 95-39	서울특별시 영등포구 영등포로	150050	7352	126.9198146	37.51359279
8971353	후르츠팜	음식	커피점/카페	커피전문점/카페/다방	서울특별시 종로구 안국동 65-1	서울특별시 종로구 북촌로1길	110240	3060	126.9839864	37.57769492
9006289	티몬스	음식	커피점/카페	커피전문점/카페/다방	서울특별시 성동구 성수동1가 706	서울특별시 성동구 상원길	133756	4788	127.0470916	37.55012657
8997009	홈플러스	음식	분식	떡볶이전문	서울특별시 종로구 수송동 80	서울특별시 종로구 종로5길	110733	3151	126.9804448	37.57340246
8994626	탐앤탐스대한항공서소문점	음식	커피점/카페	커피전문점/카페/다방	서울특별시 중구 서소문동 41-3	서울특별시 중구 서소문로	100813	4515	126.9741042	37.56357123
8723652	제너시스비비큐서울대	음식	닭/오리요리	후라이드/양념치킨	서울특별시 관악구 봉천동 239-1	서울특별시 관악구 관악로	151050	8826	126.9592795	37.46802955
8943367	뉴욕피자본사	음식	패스트푸드	피자전문	서울특별시 은평구 신사동 19-106	서울특별시 은평구 은평로	122080	3437	126.9097766	37.59781068
8972153	커피니	음식	커피점/카페	커피전문점/카페/다방	서울특별시 송파구 잠실동 1-2	서울특별시 송파구 백제고분로	138220	5500	127.0764903	37.51920175
9005790	오복다방	음식	커피점/카페	커피전문점/카페/다방	서울특별시 구로구 고척동 103-4	서울특별시 구로구 경인로43길	152757	8225	126.8605996	37.49866479
8959518	땡큐맘치킨상암DMC점	음식	닭/오리요리	후라이드/양념치킨	서울특별시 마포구 상암동 1752	서울특별시 마포구 월드컵북로	121785	3902	126.878151	37.58479175
8952736	뚱스밥버거천왕점	음식	패스트푸드	패스트푸드	서울특별시 구로구 천왕동 27	서울특별시 구로구 천왕로	152130	8365	126.8389016	37.48304569
8965848	곳찌	음식	분식	라면김밥분식	서울특별시 서대문구 충정로3가 465	서울특별시 서대문구 서소문로	120013	3741	126.9648455	37.5602737
8969635	바이킹햄버거	음식	패스트푸드	패스트푸드	서울특별시 종로구 교남동 51	서울특별시 종로구 통일로	110100	3180	126.9643683	37.56858612
8941421	떡고물즉석떡볶이	음식	분식	떡볶이전문	서울특별시 성북구 삼선동2가 393	서울특별시 성북구 삼선교로16가길	136042	2868	127.0111433	37.58390845
8966548	공차	음식	커피점/카페	커피전문점/카페/다방	서울특별시 강북구 미아동 1361	서울특별시 강북구 도봉로76가길	142100	1131	127.0265521	37.63262955
8963902	미스터도넛	음식	제과제빵떡케익	제과점	서울특별시 강남구 역삼동 679-1	서울특별시 강남구 논현로	135985	6141	127.0372774	37.50188574
9106249	명가떡볶이	음식	분식	떡볶이전문	서울특별시 성동구 금호동3가 1297	서울특별시 성동구 장터길	133807	4724	127.0187984	37.54842613
9032574	이화당	음식	제과제빵떡케익	제과점	서울특별시 서대문구 대신동 50-6	서울특별시 서대문구 성산로	120160	3721	126.9436597	37.56329374
9107612	봉평메밀촌	음식	분식	라면김밥분식	서울특별시 도봉구 방학동 724-37	서울특별시 도봉구 방학로	132020	1407	127.0485782	37.66184955
8947109	미아역제과점	음식	제과제빵떡케익	제과점	서울특별시 강북구 미아동 455-1	서울특별시 강북구 솔샘로64길	142100	1206	127.0282576	37.61563204
9040877	파스구찌	음식	커피점/카페	커피전문점/카페/다방	서울특별시 종로구 연건동 28-2	서울특별시 종로구 대학로	110799	3080	127.0009449	37.58114648
8957811	뚜껑집	음식	분식	라면김밥분식	서울특별시 서대문구 미근동 27	서울특별시 서대문구 충정로6안길	120020	3739	126.9667033	37.56426356
9159925	씨엠피프랜드치킨	음식	닭/오리요리	후라이드/양념치킨	서울특별시 서초구 잠원동 50-5	서울특별시 서초구 잠원로14길	137950	6515	127.014364	37.51648305
9098903	더치킨	음식	닭/오리요리	후라이드/양념치킨	서울특별시 관악구 봉천동 196-97	서울특별시 관악구 낙성대역길	151050	8798	126.963897	37.47420631
9075822	장터칼국수	음식	분식	국수/만두/칼국수	서울특별시 마포구 공덕동 256-5	서울특별시 마포구 마포대로6길	121803	4214	126.953305	37.54538586
9015209	옛집국수	음식	분식	국수/만두/칼국수	서울특별시 용산구 한강로1가 231-23	서울특별시 용산구 한강대로62길	140011	4382	126.973313	37.53378486
9010725	썬더치킨	음식	닭/오리요리	후라이드/양념치킨	서울특별시 동대문구 청량리동 520-41	서울특별시 동대문구 제기로	130869	2470	127.0418905	37.58687417
9011952	익스페리멘탈커피바	음식	커피점/카페	커피전문점/카페/다방	서울특별시 용산구 한남동 726-162	서울특별시 용산구 한남대로40길	140893	4417	127.0033193	37.54229552
9024768	옛날홍두깨손칼국수	음식	분식	국수/만두/칼국수	서울특별시 중구 신당동 366-2	서울특별시 중구 동호로7길	100450	4597	127.0106078	37.55249359
9122052	올리브떡볶이	음식	분식	떡볶이전문	서울특별시 서대문구 홍제동 56	서울특별시 서대문구 통일로	120090	3731	126.9509975	37.58083031
9146560	만복국수	음식	분식	국수/만두/칼국수	서울특별시 중랑구 면목동 131-1	서울특별시 중랑구 봉우재로	131200	2144	127.0862865	37.59247027
9146572	만복국수	음식	분식	라면김밥분식	서울특별시 강남구 신사동 661-10	서울특별시 강남구 압구정로50길	135897	6018	127.0393005	37.52758224
9146558	만복국수	음식	분식	국수/만두/칼국수	서울특별시 서초구 양재동 11-52	서울특별시 서초구 남부순환로350길	137130	6737	127.0362864	37.48394664
9027080	대원통닭	음식	닭/오리요리	후라이드/양념치킨	서울특별시 영등포구 양평동2가 19-1	서울특별시 영등포구 영등포로	150102	7278	126.8839643	37.52298172
9132819	퍼넬스페셜티커피하우스	음식	커피점/카페	커피전문점/카페/다방	서울특별시 마포구 염리동 520	서울특별시 마포구 백범로25길	121776	4139	126.9467653	37.54932833
9148071	맛강정치킨	음식	닭/오리요리	후라이드/양념치킨	서울특별시 노원구 상계동 728-3	서울특별시 노원구 동일로	139200	1751	127.0614895	37.65270838
9043836	착한분식	음식	분식	라면김밥분식	서울특별시 노원구 중계동 581	서울특별시 노원구 덕릉로89길	139921	1662	127.0753574	37.66120653
9023379	설매화	음식	커피점/카페	커피전문점/카페/다방	서울특별시 종로구 종로6가 92-2	서울특별시 종로구 종로	110126	3124	127.0080154	37.57133069
9146563	만복국수	음식	분식	국수/만두/칼국수	서울특별시 강북구 수유동 176-72	서울특별시 강북구 한천로140길	142070	1054	127.0272723	37.64082589
9123204	임실치즈피자중계점	음식	패스트푸드	피자전문	서울특별시 노원구 중계동 413-8	서울특별시 노원구 덕릉로	139220	1708	127.071846	37.65101528
9146269	더라임	음식	커피점/카페	커피전문점/카페/다방	서울특별시 서대문구 충정로3가 465	서울특별시 서대문구 서소문로	120013	3741	126.9648455	37.5602737
8950448	뚜레쥬르	음식	제과제빵떡케익	제과점	서울특별시 종로구 종로2가 102-2	서울특별시 종로구 종로	110122	3189	126.9842731	37.5699214
9069089	왕만두	음식	분식	국수/만두/칼국수	서울특별시 구로구 가리봉동 131-33	서울특별시 구로구 디지털로19길	152801	8388	126.8899064	37.48154463
8848499	까페10그램	음식	커피점/카페	커피전문점/카페/다방	서울특별시 금천구 가산동 60-3	서울특별시 금천구 디지털로9길	153702	8512	126.8863971	37.4810701
8970686	라바토리카페N03	음식	커피점/카페	커피전문점/카페/다방	서울특별시 서대문구 충정로3가 465	서울특별시 서대문구 서소문로	120013	3741	126.9648455	37.5602737
8962995	죠아떡볶이커피	음식	분식	떡볶이전문	서울특별시 송파구 장지동 879	서울특별시 송파구 위례광장로	138926	5848	127.1393107	37.47962403
9043967	참구움	음식	제과제빵떡케익	제과점	서울특별시 서대문구 북가좌동 487	서울특별시 서대문구 수색로	120130	3709	126.9126631	37.57065312
8749737	파파존스피자	음식	패스트푸드	패스트푸드	서울특별시 구로구 개봉동 146-5	서울특별시 구로구 경인로	152090	8238	126.8553021	37.49749628
9065668	아틀란타홈메이드씨스터스학윙스	음식	패스트푸드	패스트푸드	서울특별시 종로구 청진동 128	서울특별시 종로구 종로5길	110130	3157	126.9805394	37.57061005
8946276	또래오래	음식	닭/오리요리	후라이드/양념치킨	서울특별시 강북구 미아동 258-695	서울특별시 강북구 오패산로52길	142807	1142	127.0322042	37.62574708
9074976	장충김밥	음식	분식	라면김밥분식	서울특별시 중구 장충동1가 56-33	서울특별시 중구 장충단로	100391	4606	127.0061798	37.56123258
8972040	탐앤탐스명동중앙우체국점	음식	커피점/카페	커피전문점/카페/다방	서울특별시 중구 충무로1가 25-10	서울특별시 중구 명동8나길	100011	4535	126.9820616	37.56107214
9075425	장칼국수	음식	분식	라면김밥분식	서울특별시 중구 을지로5가 149	서울특별시 중구 동호로34길	100195	4561	127.0031021	37.56540549
9075516	장터국수선수촌점	음식	분식	국수/만두/칼국수	서울특별시 송파구 잠실동 85	서울특별시 송파구 올림픽로4길	138220	5572	127.0767021	37.50843579
8962658	죠샌드위치	음식	패스트푸드	패스트푸드	서울특별시 중구 순화동 215	서울특별시 중구 통일로	100130	4517	126.969526	37.5631349
9110528	부어치킨	음식	닭/오리요리	후라이드/양념치킨	서울특별시 광진구 자양동 553-41	서울특별시 광진구 뚝섬로	143773	5070	127.0713208	37.53469539
9083895	퐁닭퐁닭	음식	닭/오리요리	후라이드/양념치킨	서울특별시 관악구 봉천동 895-25	서울특별시 관악구 청룡3길	151050	8786	126.9470349	37.4810404
9007599	처갓집양념치킨신길점	음식	닭/오리요리	후라이드/양념치킨	서울특별시 영등포구 신길동 95-62	서울특별시 영등포구 영등포로	150050	7352	126.9190191	37.51384682
9013704	이웃집소녀떡볶이	음식	분식	떡볶이전문	서울특별시 마포구 공덕동 256-5	서울특별시 마포구 마포대로6길	121803	4214	126.9533093	37.54507954
8954570	제퍼빈스	음식	커피점/카페	커피전문점/카페/다방	서울특별시 영등포구 여의도동 23-8	서울특별시 영등포구 국제금융로2길	150707	7325	126.9241241	37.52384997
9062748	아이리시포테이토	음식	패스트푸드	패스트푸드	서울특별시 송파구 문정동 634	서울특별시 송파구 충민로	138200	5838	127.124941	37.47760822
8922274	커피마마	음식	커피점/카페	커피전문점/카페/다방	서울특별시 중랑구 면목동 458-119	서울특별시 중랑구 사가정로53길	131200	2210	127.0889691	37.58233622
9063344	아이스빌	음식	커피점/카페	커피전문점/카페/다방	서울특별시 노원구 상계동 1313-2	서울특별시 노원구 누원로	139200	1601	127.0528385	37.68692348
9001354	카페베네	음식	커피점/카페	커피전문점/카페/다방	서울특별시 노원구 상계동 712-1	서울특별시 노원구 노해로	139715	1689	127.0597337	37.65444241
8972360	커피빈	음식	커피점/카페	커피전문점/카페/다방	서울특별시 강남구 청담동 88	서울특별시 강남구 선릉로158길	135954	6014	127.0408215	37.52542307
9146555	만복국수집	음식	분식	국수/만두/칼국수	서울특별시 영등포구 신길동 99-12	서울특별시 영등포구 영등포로	150050	7318	126.9194888	37.51422054
9059322	브라운칩	음식	분식	라면김밥분식	서울특별시 송파구 문정동 128-8	서울특별시 송파구 송이로31길	138200	5798	127.1330032	37.48927336
9094240	김밥예찬	음식	분식	라면김밥분식	서울특별시 강북구 미아동 62-3	서울특별시 강북구 솔샘로68길	142100	1205	127.0288031	37.61549236
9148292	맛나네만두	음식	분식	국수/만두/칼국수	서울특별시 용산구 한강로1가 231-23	서울특별시 용산구 한강대로62길	140011	4382	126.973313	37.53378486
9059359	브래드쇼	음식	제과제빵떡케익	제과점	서울특별시 용산구 한남동 736-9	서울특별시 용산구 이태원로	140893	4404	126.9978889	37.53459967
8948852	엘카페	음식	커피점/카페	커피전문점/카페/다방	서울특별시 영등포구 대림동 782-3	서울특별시 영등포구 대림로	150070	7378	126.897009	37.50063225
8957974	또래오래	음식	닭/오리요리	후라이드/양념치킨	서울특별시 도봉구 쌍문동 681	서울특별시 도봉구 도봉로125길	132030	1436	127.0369243	37.65501526
9088612	글로리아진스커피	음식	커피점/카페	커피전문점/카페/다방	서울특별시 서대문구 충정로3가 465	서울특별시 서대문구 서소문로	120013	3741	126.9648455	37.5602737
9018389	석관동떡볶이	음식	분식	떡볶이전문	서울특별시 종로구 명륜4가 47	서울특별시 종로구 대명길	110524	3078	127.0003396	37.58323177
9131256	파파존스피자	음식	패스트푸드	피자전문	서울특별시 중구 장충동2가 200-1	서울특별시 중구 동호로	100856	4605	127.0076591	37.55808235
9079799	초동국수	음식	분식	국수/만두/칼국수	서울특별시 송파구 문정동 634	서울특별시 송파구 충민로	138200	5838	127.124941	37.47760822
9039566	투썸플레이스	음식	커피점/카페	커피전문점/카페/다방	서울특별시 서초구 방배동 910-14	서울특별시 서초구 방배로	137060	6686	126.996274	37.48283857
8968578	라성베이커리	음식	제과제빵떡케익	제과점	서울특별시 성북구 정릉동 1020	서울특별시 성북구 북악산로	136772	2819	127.014453	37.6008036
9131097	파티오	음식	분식	라면김밥분식	서울특별시 서초구 반포동 817	서울특별시 서초구 신반포로3길	137040	6501	126.9863035	37.50191885
8949343	슬로윗카페	음식	커피점/카페	커피전문점/카페/다방	서울특별시 성북구 안암동5가 1-2	서울특별시 성북구 안암로	136701	2841	127.0317018	37.58848499
9173324	DUTCH&COMPANY	음식	커피점/카페	커피전문점/카페/다방	서울특별시 서초구 우면동 686	서울특별시 서초구 성촌1길	137901	6765	127.0213541	37.46539725
9184992	토프레소	음식	커피점/카페	커피전문점/카페/다방	서울특별시 구로구 오류동 355	서울특별시 구로구 서해안로	152100	8358	126.833021	37.48747494
9050592	해촌칼국수	음식	분식	국수/만두/칼국수	서울특별시 양천구 목동 507-8	서울특별시 양천구 목동중앙북로	158050	7947	126.8707155	37.54708468
8936104	엄마김밥	음식	분식	라면김밥분식	서울특별시 광진구 자양동 829	서울특별시 광진구 능동로3길	143764	5086	127.0671514	37.53331996
9058007	북촌손만두	음식	분식	라면김밥분식	서울특별시 마포구 서교동 405-14	서울특별시 마포구 어울마당로	121895	4048	126.9209714	37.55029381
9044059	인디오븐개봉사랑점	음식	제과제빵떡케익	제과점	서울특별시 구로구 개봉동 481	서울특별시 구로구 개봉로20길	152755	8329	126.8592398	37.492894
9037031	예술의전당카페마티스	음식	커피점/카페	커피전문점/카페/다방	서울특별시 서초구 서초동 700	서울특별시 서초구 남부순환로	137718	6757	127.0141267	37.48033078
9033131	벨띠에다빈치카페	음식	커피점/카페	커피전문점/카페/다방	서울특별시 서초구 서초동 700	서울특별시 서초구 남부순환로	137718	6757	127.0141267	37.48033078
8985953	샛별당	음식	분식	라면김밥분식	서울특별시 종로구 소격동 144-6	서울특별시 종로구 율곡로3길	110200	3062	126.9820622	37.57932724
9039609	투썸플레이스	음식	커피점/카페	커피전문점/카페/다방	서울특별시 강남구 일원동 615-1	서울특별시 강남구 개포로110길	135946	6337	127.0796692	37.49155509
9032765	글로리아진스커피	음식	커피점/카페	커피전문점/카페/다방	서울특별시 서초구 우면동 686	서울특별시 서초구 성촌1길	137901	6765	127.0213541	37.46539725
9052882	페리카나정릉점	음식	닭/오리요리	후라이드/양념치킨	서울특별시 성북구 돈암동 43-6	서울특별시 성북구 북악산로	136060	2828	127.0193735	37.59865507
9035635	쪼아모아	음식	분식	라면김밥분식	서울특별시 광진구 자양동 612-51	서울특별시 광진구 자양로15길	143190	5055	127.0813468	37.53553069
9043408	파리바게뜨쌍문사거리	음식	제과제빵떡케익	제과점	서울특별시 도봉구 쌍문동 80-49	서울특별시 도봉구 도봉로	132030	1440	127.0361625	37.65170225
9093034	김군COFFEE	음식	커피점/카페	커피전문점/카페/다방	서울특별시 성동구 성수동2가 300-75	서울특별시 성동구 아차산로7길	133120	4793	127.0536654	37.5457733
9105901	멜로우	음식	분식	라면김밥분식	서울특별시 서초구 방배동 2525	서울특별시 서초구 방배선행길	137753	6760	126.9825867	37.4740984
9108361	부나빈	음식	커피점/카페	커피전문점/카페/다방	서울특별시 서초구 우면동 755	서울특별시 서초구 양재대로2길	137140	6767	127.0153507	37.45684137
8941797	뚜레쥬르	음식	제과제빵떡케익	제과점	서울특별시 종로구 무악동 42-2	서울특별시 종로구 통일로	110080	3030	126.9579324	37.57471962
9095268	김병만투마리치킨	음식	닭/오리요리	후라이드/양념치킨	서울특별시 동대문구 전농동 4-3	서울특별시 동대문구 한천로39길	130020	2534	127.0667739	37.57811714
8941411	땅땅치킨석촌역점	음식	닭/오리요리	후라이드/양념치킨	서울특별시 송파구 송파동 16-6	서울특별시 송파구 백제고분로41길	138170	5626	127.1077994	37.50718802
9094545	김밥천국	음식	분식	라면김밥분식	서울특별시 용산구 한강로2가 116-2	서울특별시 용산구 한강대로	140872	4382	126.9699459	37.53098032
9094519	김밥천국	음식	분식	라면김밥분식	서울특별시 서초구 반포동 94-7	서울특별시 서초구 서래로	137040	6576	126.9981966	37.49889366
9093595	김밥	음식	분식	라면김밥분식	서울특별시 송파구 문정동 628	서울특별시 송파구 충민로	138200	5840	127.1193706	37.47826065
9113085	세븐데이즈	음식	분식	라면김밥분식	서울특별시 은평구 불광동 644	서울특별시 은평구 연서로34길	122040	3348	126.9318477	37.61997965
9104845	메인즈MAINS	음식	커피점/카페	커피전문점/카페/다방	서울특별시 성동구 옥수동 561	서울특별시 성동구 매봉길	133100	4733	127.0136927	37.54598681
9106501	명가인빵	음식	제과제빵떡케익	제과점	서울특별시 동대문구 제기동 635-21	서울특별시 동대문구 왕산로	130862	2572	127.0428433	37.57966454
9009149	파리바게뜨	음식	제과제빵떡케익	제과점	서울특별시 서초구 잠원동 50-5	서울특별시 서초구 나루터로	137950	6515	127.0141741	37.51543625
9284127	강정이기가막혀	음식	닭/오리요리	후라이드/양념치킨	서울특별시 종로구 통인동 147-2	서울특별시 종로구 자하문로	110043	3040	126.9711725	37.57921481
9176846	그집칼국수	음식	분식	라면김밥분식	서울특별시 용산구 이촌동 300-3	서울특별시 용산구 이촌로	140722	4425	126.9798645	37.51714522
9162228	오돌이	음식	분식	라면김밥분식	서울특별시 영등포구 영등포동3가 10-28	서울특별시 영등포구 영중로4길	150033	7304	126.9073767	37.51714563
9171904	파리바게뜨카페하월곡동일점	음식	제과제빵떡케익	제과점	서울특별시 성북구 하월곡동 90-1	서울특별시 성북구 종암로	136130	2736	127.0330257	37.60780514
9447624	더키친브라세리	음식	분식	라면김밥분식	서울특별시 종로구 소격동 73	서울특별시 종로구 삼청로	110200	3053	126.980251	37.58014057
9161766	아딸	음식	분식	떡볶이전문	서울특별시 강서구 등촌동 699-3	서울특별시 강서구 공항대로41길	157030	7587	126.845964	37.55971211
9172213	투썸플레이스상암E&M점	음식	커피점/카페	커피전문점/카페/다방	서울특별시 마포구 상암동 1606	서울특별시 마포구 상암산로	121920	3926	126.8914724	37.57824997
9483320	비어킹	음식	닭/오리요리	후라이드/양념치킨	서울특별시 광진구 구의동 212-29	서울특별시 광진구 아차산로	143200	5035	127.0936583	37.5401401
9168758	크림팝	음식	분식	국수/만두/칼국수	서울특별시 송파구 문정동 628	서울특별시 송파구 충민로	138200	5840	127.1193706	37.47826065
9172195	성북동메밀수제비	음식	분식	국수/만두/칼국수	서울특별시 성북구 성북동 281-1	서울특별시 성북구 성북로31길	136823	2879	126.9904494	37.59457277
9522182	리킨치킨	음식	닭/오리요리	후라이드/양념치킨	서울특별시 종로구 낙원동 236-1	서울특별시 종로구 종로17길	110320	3140	126.988541	37.57241789
9237311	CJ푸드빌투썸플레이스퀘	음식	커피점/카페	커피전문점/카페/다방	서울특별시 중구 남대문로5가 541	서울특별시 중구 한강대로	100714	4637	126.9737396	37.55549473
9538609	맛나베이커리	음식	제과제빵떡케익	제과점	서울특별시 성동구 금호동3가 411-3	서울특별시 성동구 독서당로	133805	4730	127.0220921	37.54839038
9160499	씨제이엔시티카페비즈코즈	음식	커피점/카페	커피전문점/카페/다방	서울특별시 동작구 신대방동 425	서울특별시 동작구 보라매로5길	156707	7061	126.924318	37.49299992
9218388	커피빈코리아CBTL잠실홈플러스점	음식	커피점/카페	커피전문점/카페/다방	서울특별시 송파구 신천동 7-12	서울특별시 송파구 올림픽로35가길	138240	5510	127.1029857	37.51624324
9355523	김밥하우스	음식	분식	라면김밥분식	서울특별시 성북구 석관동 304-26	서울특별시 성북구 돌곶이로	136819	2788	127.0598216	37.60789551
9354805	김밥속으로	음식	분식	라면김밥분식	서울특별시 성북구 돈암동 524	서울특별시 성북구 아리랑로	136796	2826	127.0136042	37.60076047
9387859	네스카페	음식	커피점/카페	커피전문점/카페/다방	서울특별시 구로구 구로동 573	서울특별시 구로구 구로중앙로	152715	8292	126.8824086	37.50137804
9512778	로티보이동부이촌점	음식	제과제빵떡케익	제과점	서울특별시 용산구 이촌동 301-10	서울특별시 용산구 이촌로	140030	4423	126.9743481	37.52017002
9495840	뚜레쥬르월곡래미안점	음식	제과제빵떡케익	제과점	서울특별시 성북구 하월곡동 79-107	서울특별시 성북구 월계로	136130	2741	127.0355495	37.61145698
9512100	로즈버드	음식	커피점/카페	커피전문점/카페/다방	서울특별시 성북구 동선동2가 308	서울특별시 성북구 보문로34길	136052	2844	127.0205242	37.59122203
9487948	디디치킨숭실대점	음식	닭/오리요리	후라이드/양념치킨	서울특별시 동작구 상도동 505-5	서울특별시 동작구 사당로	156030	7027	126.9568797	37.49510304
9513345	롭도프리츠	음식	분식	라면김밥분식	서울특별시 서대문구 창천동 33-46	서울특별시 서대문구 연세로7안길	120834	3788	126.9364605	37.55774178
9599819	조스베이커리	음식	제과제빵떡케익	제과점	서울특별시 광진구 광장동 582	서울특별시 광진구 아차산로	143776	4983	127.0996444	37.54295213
9780390	스타벅스월계이마트점	음식	커피점/카페	커피전문점/카페/다방	서울특별시 노원구 월계동 333-1	서울특별시 노원구 마들로3길	139842	1906	127.0619664	37.62650103
9562156	모모즉석떡볶이	음식	분식	떡볶이전문	서울특별시 관악구 봉천동 1635-25	서울특별시 관악구 남부순환로246나길	151050	8793	126.9650635	37.47488331
9512782	로티보이	음식	제과제빵떡케익	제과점	서울특별시 용산구 청파동2가 71-127	서울특별시 용산구 청파로47길	140132	4313	126.9684567	37.54463617
9867543	에디슨치킨	음식	닭/오리요리	후라이드/양념치킨	서울특별시 노원구 중계동 359-1	서울특별시 노원구 중계로	139781	1713	127.0750306	37.65100426
9994070	수작	음식	분식	국수/만두/칼국수	서울특별시 강북구 수유동 279-90	서울특별시 강북구 한천로	142070	1037	127.0151686	37.64787066
9780354	스타벅스	음식	커피점/카페	커피전문점/카페/다방	서울특별시 은평구 응암동 90-1	서울특별시 은평구 은평로	122010	3461	126.9204912	37.60081951
9917201	오리엔탈루	음식	닭/오리요리	후라이드/양념치킨	서울특별시 용산구 용산동2가 1-3	서울특별시 용산구 남산공원길	140833	4340	126.9878557	37.55111136
9872381	에스프레소인	음식	커피점/카페	커피전문점/카페/다방	서울특별시 서대문구 합동 31-7	서울특별시 서대문구 서소문로	120030	3741	126.9652656	37.56099821
10272044	할리스커피	음식	커피점/카페	커피전문점/카페/다방	서울특별시 관악구 봉천동 862-1	서울특별시 관악구 남부순환로	151050	8787	126.9520677	37.48094098
10193213	투썸커피	음식	커피점/카페	커피전문점/카페/다방	서울특별시 강남구 신사동 651-21	서울특별시 강남구 도산대로	135897	6021	127.0369963	37.52288701
9872378	에스프레소6230	음식	커피점/카페	커피전문점/카페/다방	서울특별시 종로구 안국동 153	서울특별시 종로구 율곡로	110240	3060	126.9849082	37.57651347
10312647	홈스테드종각SK점	음식	커피점/카페	커피전문점/카페/다방	서울특별시 종로구 관철동 290	서울특별시 종로구 우정국로	110111	3189	126.983205	37.5693896
10272040	할리스커피	음식	커피점/카페	커피전문점/카페/다방	서울특별시 영등포구 영등포동3가 6	서울특별시 영등포구 영등포로	150033	7302	126.9053279	37.51955948
10271999	할리스커피	음식	커피점/카페	커피전문점/카페/다방	서울특별시 중구 정동 22	서울특별시 중구 정동길	100702	4518	126.9699548	37.56816645
10193228	투썸플레이스	음식	커피점/카페	커피전문점/카페/다방	서울특별시 용산구 용산동2가 1-3	서울특별시 용산구 남산공원길	140833	4340	126.9878557	37.55111136
3701528	드롭탑	음식	커피점/카페	커피전문점/카페/다방	서울특별시 관악구 신림동 1422-5	서울특별시 관악구 신림로	151890	8754	126.9300785	37.48475357
3308062	카페다스티	음식	커피점/카페	커피전문점/카페/다방	서울특별시 중구 남산동2가 30-1	서울특별시 중구 퇴계로20길	100042	4631	126.9857171	37.55943668
3130950	커피홀	음식	커피점/카페	커피전문점/카페/다방	서울특별시 영등포구 여의도동 61-4	서울특별시 영등포구 63로	150732	7345	126.9387642	37.51899064
3062437	더착한커피	음식	커피점/카페	커피전문점/카페/다방	서울특별시 강서구 가양동 187-13	서울특별시 강서구 강서로	157200	7523	126.8413317	37.57013672
3166247	파스쿠찌	음식	커피점/카페	커피전문점/카페/다방	서울특별시 강남구 역삼동 705-18	서울특별시 강남구 테헤란로	135080	6150	127.0479975	37.5046848
4598374	김밥천국	음식	분식	라면김밥분식	서울특별시 서초구 서초동 1446-11	서울특별시 서초구 서초중앙로	137919	6718	127.0156294	37.48300142
4763454	롯데제이티비	음식	커피점/카페	커피전문점/카페/다방	서울특별시 은평구 녹번동 38-29	서울특별시 은평구 통일로	122827	3372	126.9354049	37.60247773
4839387	맛짱떡볶이	음식	분식	떡볶이전문	서울특별시 강남구 논현동 162-16	서울특별시 강남구 강남대로122길	135010	6114	127.0244145	37.50824077
4763709	언노운커피	음식	커피점/카페	커피전문점/카페/다방	서울특별시 중구 을지로4가 311-7	서울특별시 중구 을지로	100194	4549	126.9952228	37.56632083
5010613	노랑통닭시흥점	음식	닭/오리요리	후라이드/양념치킨	서울특별시 금천구 시흥동 888-1	서울특별시 금천구 시흥대로52길	153030	8628	126.902077	37.45340142
4977170	에슬로우커피	음식	커피점/카페	커피전문점/카페/다방	서울특별시 중구 신당동 347-339	서울특별시 중구 다산로14길	100450	4590	127.012023	37.55588436
4983535	푸드카페	음식	커피점/카페	커피전문점/카페/다방	서울특별시 강남구 논현동 277-36	서울특별시 강남구 봉은사로	135010	6103	127.0405944	37.50958972
6661343	빈스앤베리즈	음식	커피점/카페	커피전문점/카페/다방	서울특별시 동대문구 신설동 98-32	서울특별시 동대문구 왕산로	130811	2582	127.0248459	37.57588603
6958405	탐앤탐스강남1호점	음식	커피점/카페	커피전문점/카페/다방	서울특별시 서초구 서초동 1309-9	서울특별시 서초구 서초대로77길	137070	6611	127.0244504	37.50200577
7107525	유가네닭갈비연신내점	음식	닭/오리요리	닭갈비전문	서울특별시 은평구 갈현동 400-5	서울특별시 은평구 연서로29길	122050	3330	126.9184882	37.61948854
8661668	롯데리아신방화역점	음식	패스트푸드	패스트푸드	서울특별시 강서구 마곡동 739-3	서울특별시 강서구 마곡중앙5로	157210	7599	126.8187513	37.5670837
8991952	이가네바지락칼국수	음식	분식	국수/만두/칼국수	서울특별시 동대문구 답십리동 35-6	서울특별시 동대문구 전농로	130030	2615	127.0573397	37.56941016
8898833	카페714	음식	커피점/카페	커피전문점/카페/다방	서울특별시 강남구 대치동 987	서울특별시 강남구 도곡로83길	135280	6190	127.0623285	37.50009591
8869538	모리모리	음식	분식	라면김밥분식	서울특별시 용산구 갈월동 89-5	서울특별시 용산구 한강대로	140807	4321	126.9721521	37.54335287
8900282	카페띠아모송파거여점	음식	커피점/카페	커피전문점/카페/다방	서울특별시 송파구 거여동 27-5	서울특별시 송파구 오금로	138110	5773	127.1455162	37.49268945
9163727	오븐에빠진닭공릉점	음식	닭/오리요리	후라이드/양념치킨	서울특별시 노원구 공릉동 745	서울특별시 노원구 공릉로	139728	1833	127.0773791	37.627875
9068075	와플잇업	음식	패스트푸드	패스트푸드	서울특별시 서대문구 대현동 27-17	서울특별시 서대문구 이화여대3길	120808	3766	126.9433237	37.5582359
8783944	앤티앤스	음식	커피점/카페	커피전문점/카페/다방	서울특별시 용산구 한강로3가 40-999	서울특별시 용산구 한강대로21나길	140780	4377	126.9647243	37.5297633
8757421	유기택피자	음식	패스트푸드	패스트푸드	서울특별시 성북구 정릉동 164-37	서울특별시 성북구 정릉로27길	136100	2718	127.0132238	37.60469483
9041356	파리바게뜨정동점	음식	제과제빵떡케익	제과점	서울특별시 중구 충정로1가 51-7	서울특별시 중구 새문안로	100151	4516	126.9690879	37.56781649
9094374	김밥제이	음식	분식	라면김밥분식	서울특별시 마포구 서교동 465-2	서울특별시 마포구 동교로	121842	4030	126.9163668	37.55488298
8953298	미스터피자발산점	음식	패스트푸드	피자전문	서울특별시 강서구 내발산동 701-14	서울특별시 강서구 강서로	157833	7639	126.8359483	37.55090982
9129134	청년김밥	음식	분식	라면김밥분식	서울특별시 동대문구 신설동 98-9	서울특별시 동대문구 하정로	130811	2582	127.0262839	37.57587087
9104639	메이	음식	제과제빵떡케익	제과점	서울특별시 강남구 삼성동 159	서울특별시 강남구 영동대로	135798	6164	127.0591391	37.51182033
9131257	파파존스피자	음식	패스트푸드	피자전문	서울특별시 강동구 천호동 315	서울특별시 강동구 올림픽로	134020	5323	127.1269629	37.54768957
9133549	페리카나방이2호점	음식	닭/오리요리	후라이드/양념치킨	서울특별시 송파구 방이동 159-16	서울특별시 송파구 가락로	138050	5629	127.1191981	37.51221137
8982273	롯데리아	음식	패스트푸드	패스트푸드	서울특별시 구로구 개봉동 415	서울특별시 구로구 경인로40길	152090	8276	126.8590908	37.49451444
10428291	요거프레소	음식	커피점/카페	커피전문점/카페/다방	서울특별시 노원구 중계동 606	서울특별시 노원구 덕릉로83길	139220	1662	127.0737499	37.65922066
10375045	카페베네	음식	커피점/카페	커피전문점/카페/다방	서울특별시 광진구 자양동 227-7	서울특별시 광진구 아차산로	143730	5065	127.0729816	37.53854692
8701887	공차	음식	커피점/카페	커피전문점/카페/다방	서울특별시 용산구 한강로3가 40-999	서울특별시 용산구 한강대로21나길	140780	4377	126.9647243	37.5297633
9143508	대청마루	음식	분식	라면김밥분식	서울특별시 강남구 논현동 240-12	서울특별시 강남구 선릉로129길	135010	6099	127.039832	37.51612517
8677627	할리스커피테크노마트점	음식	커피점/카페	커피전문점/카페/다방	서울특별시 광진구 구의동 546-4	서울특별시 광진구 광나루로56길	143721	5116	127.0956807	37.53571341
9171786	파리바게뜨	음식	제과제빵떡케익	제과점	서울특별시 강서구 마곡동 739-3	서울특별시 강서구 마곡중앙5로	157210	7599	126.8187513	37.5670837
10839410	롯데리아롯데마트행당역점	음식	패스트푸드	패스트푸드	서울특별시 성동구 행당동 346	서울특별시 성동구 행당로	133777	4717	127.0301602	37.55718808
10622055	모노레일에스프레소	음식	커피점/카페	커피전문점/카페/다방	서울특별시 마포구 공덕동 371	서울특별시 마포구 마포대로	121762	4145	126.9511282	37.5456819
10432724	두부촌털보네칼국수	음식	분식	국수/만두/칼국수	서울특별시 성동구 행당동 346	서울특별시 성동구 행당로	133777	4717	127.0287309	37.55656361
10493928	뚜레쥬르	음식	제과제빵떡케익	제과점	서울특별시 마포구 서교동 392-4	서울특별시 마포구 양화로	121839	4037	126.9154594	37.55111731
10160210	퀴즈노스	음식	패스트푸드	패스트푸드	서울특별시 송파구 잠실동 40-1	서울특별시 송파구 올림픽로	138721	5554	127.0981244	37.51130447
10520263	죠스떡볶이	음식	분식	떡볶이전문	서울특별시 용산구 이촌동 301-10	서울특별시 용산구 이촌로75길	140030	4423	126.9743481	37.52017002
10689864	커피바이	음식	커피점/카페	커피전문점/카페/다방	서울특별시 송파구 잠실동 22	서울특별시 송파구 올림픽로	138911	5502	127.0898691	37.51672858
10529612	행복한베이커리&카페	음식	제과제빵떡케익	제과점	서울특별시 강동구 고덕동 296	서울특별시 강동구 동남로82길	134080	5225	127.1601635	37.55905841
10626669	파리바게뜨신길돈보스코점	음식	제과제빵떡케익	제과점	서울특별시 영등포구 신길동 4493	서울특별시 영등포구 여의대방로	150050	7435	126.912797	37.49674192
10843494	본스치킨	음식	닭/오리요리	후라이드/양념치킨	서울특별시 마포구 대흥동 803	서울특별시 마포구 백범로	121811	4110	126.9405772	37.54757
10582628	커피스미스	음식	커피점/카페	커피전문점/카페/다방	서울특별시 강남구 삼성동 159	서울특별시 강남구 영동대로	135731	6164	127.0591391	37.51182033
10778130	탐앤탐스	음식	커피점/카페	커피전문점/카페/다방	서울특별시 성동구 행당동 168-151	서울특별시 성동구 왕십리광장로	133070	4750	127.0383792	37.56143616
10886262	페리카나치킨	음식	닭/오리요리	후라이드/양념치킨	서울특별시 도봉구 쌍문동 56	서울특별시 도봉구 해등로	132773	1431	127.0354498	37.65774235
10882260	파리바게뜨	음식	제과제빵떡케익	제과점	서울특별시 관악구 봉천동 1717	서울특별시 관악구 관악로30길	151764	8734	126.9606289	37.48895487
10593982	102베이커리	음식	제과제빵떡케익	제과점	서울특별시 강서구 화곡동 1073-10	서울특별시 강서구 화곡로	157010	7715	126.837569	37.54055489
10839670	북촌손만두	음식	분식	국수/만두/칼국수	서울특별시 영등포구 영등포동4가 441-10	서울특별시 영등포구 영중로3길	150798	7305	126.9047083	37.51628295
10797182	베이커리봉교	음식	제과제빵떡케익	제과점	서울특별시 마포구 상수동 88-12	서울특별시 마포구 독막로19길	121828	4067	126.923717	37.54903038
10818881	오뚜기김밥	음식	분식	라면김밥분식	서울특별시 노원구 상계동 730-2	서울특별시 노원구 동일로	139753	1762	127.0606463	37.65217006
10942320	엄마손칼국수	음식	분식	국수/만두/칼국수	서울특별시 노원구 상계동 111-478	서울특별시 노원구 상계로39길	139200	1634	127.0802104	37.67113782
10935002	보드람치킨	음식	닭/오리요리	후라이드/양념치킨	서울특별시 동작구 노량진동 89-2	서울특별시 동작구 노량진로14다길	156050	6923	126.9438691	37.51235064
10999398	더후라이팬	음식	닭/오리요리	후라이드/양념치킨	서울특별시 성북구 동선동1가 64	서울특별시 성북구 동소문로20길	136051	2845	127.0177754	37.59100997
11000124	손칼국수	음식	분식	국수/만두/칼국수	서울특별시 영등포구 양평동3가 77-4	서울특별시 영등포구 선유로40길	150103	7218	126.8937422	37.53040819
11004191	명동충무김밥	음식	분식	라면김밥분식	서울특별시 중구 명동2가 33-4	서울특별시 중구 명동10길	100809	4536	126.9851311	37.56342326
10918357	김밥천국	음식	분식	라면김밥분식	서울특별시 용산구 서계동 260-1	서울특별시 용산구 효창원로	140830	4305	126.9631778	37.55157302
11078712	카페베네	음식	커피점/카페	커피전문점/카페/다방	서울특별시 은평구 진관동 9991-107	서울특별시 은평구 진관길	122200	3308	126.939545	37.64189002
11154891	만두전빵	음식	분식	국수/만두/칼국수	서울특별시 성동구 행당동 317-72	서울특별시 성동구 행당로15길	133070	4714	127.0318998	37.55832866
11153189	처갓집양념치킨	음식	닭/오리요리	후라이드/양념치킨	서울특별시 노원구 월계동 17	서울특별시 노원구 마들로	139050	1911	127.0668184	37.62261097
11182142	천진포자	음식	분식	국수/만두/칼국수	서울특별시 금천구 가산동 60-20	서울특별시 금천구 벚꽃로	153717	8511	126.8850681	37.47843551
11232835	엔제리너스	음식	커피점/카페	커피전문점/카페/다방	서울특별시 광진구 자양동 227-7	서울특별시 광진구 아차산로	143730	5065	127.0729816	37.53854692
2998076	메종	음식	커피점/카페	커피전문점/카페/다방	서울특별시 강남구 대치동 912-24	서울특별시 강남구 삼성로	135280	6202	127.0585433	37.50251668
4823544	코코호도	음식	제과제빵떡케익	제과점	서울특별시 용산구 이촌동 301-160	서울특별시 용산구 이촌로	140723	4424	126.9811415	37.51890428
5197901	파리바게뜨	음식	제과제빵떡케익	제과점	서울특별시 송파구 신천동 17	서울특별시 송파구 올림픽로	138930	5507	127.1049496	37.52134911
8673790	핫브레드	음식	제과제빵떡케익	제과점	서울특별시 노원구 월계동 85	서울특별시 노원구 석계로	139917	1886	127.0617495	37.6230213
11222571	공차교대점	음식	커피점/카페	커피전문점/카페/다방	서울특별시 서초구 서초동 1573-10	서울특별시 서초구 서초중앙로	137070	6644	127.013406	37.49300262
11218192	롯데리아	음식	패스트푸드	패스트푸드	서울특별시 성북구 종암동 68-10	서울특별시 성북구 종암로	136861	2810	127.0343052	37.59819251
11218618	춘천막국수	음식	분식	국수/만두/칼국수	서울특별시 영등포구 영등포동3가 23-8	서울특별시 영등포구 영중로4길	150033	7304	126.9091544	37.51780181
11391190	슈퍼커피	음식	커피점/카페	커피전문점/카페/다방	서울특별시 서초구 잠원동 69-6	서울특별시 서초구 신반포로	137908	6512	127.0055003	37.50673146
11367134	삼각지붕에화덕피자	음식	패스트푸드	피자전문	서울특별시 도봉구 방학동 734-1	서울특별시 도봉구 시루봉로	132020	1374	127.027614	37.65720948
11329428	파리바게뜨	음식	제과제빵떡케익	제과점	서울특별시 양천구 신월동 228-1	서울특별시 양천구 곰달래로	158090	7925	126.8381756	37.52990161
11390766	왕산골왕만두	음식	분식	국수/만두/칼국수	서울특별시 중구 남대문로4가 3-3	서울특별시 중구 남대문시장길	100094	4529	126.9774631	37.56047376
11394785	진미떡뽁기	음식	분식	떡볶이전문	서울특별시 양천구 신정동 1006-3	서울특별시 양천구 목동로	158070	8023	126.8647221	37.52366331
11396846	요거프레소	음식	커피점/카페	커피전문점/카페/다방	서울특별시 동작구 상도동 365-1	서울특별시 동작구 상도로	156030	6937	126.9382661	37.5046415
11397755	파리바게뜨상계백병원점	음식	제과제빵떡케익	제과점	서울특별시 노원구 상계동 749-5	서울특별시 노원구 동일로	139754	1756	127.0621664	37.65024493
10656668	킹콩김밥	음식	분식	라면김밥분식	서울특별시 노원구 하계동 284	서울특별시 노원구 공릉로	139937	1784	127.068898	37.63661152
9181757	보드게임까페오즈	음식	커피점/카페	커피전문점/카페/다방	서울특별시 강남구 역삼동 810-1	서울특별시 강남구 봉은사로2길	135080	6123	127.0258646	37.50371142
11496435	바르다김선생광장점	음식	분식	라면김밥분식	서울특별시 광진구 광장동 576	서울특별시 광진구 아차산로69길	143768	4984	127.0979465	37.54299323
11287532	자연담은치킨	음식	닭/오리요리	후라이드/양념치킨	서울특별시 서대문구 창천동 52-51	서울특별시 서대문구 연세로7길	120834	3788	126.9360413	37.55777404
10680644	퍼니플러스멀티방	음식	커피점/카페	커피전문점/카페/다방	서울특별시 강남구 역삼동 619-18	서울특별시 강남구 테헤란로1길	135080	6129	127.0271311	37.50111781
9146566	만복국수	음식	분식	국수/만두/칼국수	서울특별시 광진구 군자동 360-20	서울특별시 광진구 광나루로	143840	5003	127.0697245	37.54842386
10142096	카페비스타	음식	커피점/카페	커피전문점/카페/다방	서울특별시 강남구 청담동 53-7	서울특별시 강남구 영동대로	135952	6071	127.0541698	37.52375565
9497405	라따뚜이	음식	커피점/카페	커피전문점/카페/다방	서울특별시 양천구 신정동 1012-25	서울특별시 양천구 오목로46길	158070	8021	126.861939	37.5229247
9662527	BBQ치킨	음식	닭/오리요리	후라이드/양념치킨	서울특별시 강서구 방화동 814	서울특별시 강서구 금낭화로	157785	7510	126.8102657	37.57679266
10484855	투썸플레이스	음식	커피점/카페	커피전문점/카페/다방	서울특별시 성북구 안암동5가 1-2	서울특별시 성북구 인촌로	136701	2842	127.0309577	37.58648758
9181605	보그너커피상도동점	음식	커피점/카페	커피전문점/카페/다방	서울특별시 동작구 상도동 56-6	서울특별시 동작구 상도로53길	156030	6971	126.9534131	37.50120853
10847892	엉클스	음식	분식	떡볶이전문	서울특별시 종로구 관훈동 126-2	서울특별시 종로구 율곡로	110300	3146	126.9836538	37.57551154
8733567	스타벅스	음식	커피점/카페	커피전문점/카페/다방	서울특별시 종로구 평창동 310-1	서울특별시 종로구 평창문화로	110847	3008	126.9667633	37.60579292
8896765	피자헤븐	음식	패스트푸드	패스트푸드	서울특별시 노원구 상계동 169-175	서울특별시 노원구 상계로	139200	1684	127.0693964	37.65842051
9063331	아이스베리	음식	커피점/카페	커피전문점/카페/다방	서울특별시 종로구 명륜4가 176-2	서울특별시 종로구 대명길	110524	3078	126.9993268	37.58276366
9041542	통닭박사	음식	닭/오리요리	후라이드/양념치킨	서울특별시 서대문구 홍은동 277-157	서울특별시 서대문구 연희로	120100	3652	126.9359523	37.58232652
9054342	KFC삼성동점	음식	닭/오리요리	후라이드/양념치킨	서울특별시 강남구 삼성동 1	서울특별시 강남구 학동로	135090	6088	127.0417779	37.51698797
10232236	피자헛숭인점	음식	패스트푸드	피자전문	서울특별시 종로구 숭인동 298-1	서울특별시 종로구 종로	110550	3114	127.0163821	37.57297753
9061939	소문난잔치국수	음식	분식	라면김밥분식	서울특별시 동작구 본동 126-125	서울특별시 동작구 노량진로24길	156060	6907	126.9540251	37.5116571
8981521	로드샌드위치	음식	패스트푸드	샌드위치전문점	서울특별시 서대문구 대신동 92	서울특별시 서대문구 연대동문길	120160	3722	126.944432	37.56471528
10528616	파리바게뜨번동지점	음식	제과제빵떡케익	제과점	서울특별시 강북구 번동 463-40	서울특별시 강북구 도봉로	142060	1056	127.0289499	37.64077664
9026942	토프레소원효로점	음식	커피점/카페	커피전문점/카페/다방	서울특별시 용산구 원효로4가 137	서울특별시 용산구 효창원로	140851	4360	126.9505829	37.53372021
10661542	뚜레쥬르	음식	제과제빵떡케익	제과점	서울특별시 성북구 길음동 1285	서울특별시 성북구 길음로13길	136732	2715	127.019267	37.60935852
8996820	호수집	음식	닭/오리요리	닭갈비전문	서울특별시 중구 중림동 61-1	서울특별시 중구 청파로	100858	4506	126.9685281	37.55916161
8923701	커피플랜트	음식	커피점/카페	커피전문점/카페/다방	서울특별시 강남구 도곡동 954-24	서울특별시 강남구 강남대로44길	135270	6267	127.0354786	37.48609357
8824024	치킨마루상암2지구점	음식	닭/오리요리	후라이드/양념치킨	서울특별시 마포구 상암동 1740	서울특별시 마포구 월드컵북로	121270	3918	126.879857	37.58503321
9136383	KFC	음식	닭/오리요리	후라이드/양념치킨	서울특별시 강서구 염창동 240-21	서울특별시 강서구 양천로	157779	7547	126.8643281	37.557106
9136386	KFC	음식	닭/오리요리	후라이드/양념치킨	서울특별시 서초구 방배동 773-7	서울특별시 서초구 방배로	137060	6584	126.9895451	37.49468414
9136399	KFC	음식	닭/오리요리	후라이드/양념치킨	서울특별시 중구 태평로2가 361-1	서울특별시 중구 세종대로	100102	4515	126.9765471	37.56454754
8947641	뚜레쥬르	음식	제과제빵떡케익	제과점	서울특별시 강남구 대치동 922	서울특별시 강남구 선릉로	135280	6205	127.052031	37.49876126
8953330	뚜레쥬르	음식	제과제빵떡케익	제과점	서울특별시 광진구 군자동 363-13	서울특별시 광진구 군자로	143840	5004	127.0710408	37.54996601
10574926	브리오슈도레	음식	제과제빵떡케익	제과점	서울특별시 송파구 신천동 29	서울특별시 송파구 올림픽로	138240	5551	127.1042839	37.51363101
8999066	커피빈	음식	커피점/카페	커피전문점/카페/다방	서울특별시 종로구 서린동 136	서울특별시 종로구 종로	110729	3187	126.9788411	37.56980246
8947907	뚜레쥬르	음식	제과제빵떡케익	제과점	서울특별시 서대문구 대현동 101-17	서울특별시 서대문구 신촌로	120809	3766	126.9432288	37.55693756
9136404	KFC	음식	닭/오리요리	후라이드/양념치킨	서울특별시 노원구 상계동 713	서울특별시 노원구 동일로	139708	1695	127.0613779	37.65526643
9136408	KFC역삼점	음식	닭/오리요리	후라이드/양념치킨	서울특별시 강남구 역삼동 642-10	서울특별시 강남구 논현로	135080	6132	127.0360781	37.50192101
9136411	KFC일원동점	음식	닭/오리요리	후라이드/양념치킨	서울특별시 강남구 일원동 615-1	서울특별시 강남구 개포로110길	135946	6337	127.0796692	37.49155509
9136414	KFC양재동점	음식	닭/오리요리	후라이드/양념치킨	서울특별시 서초구 양재동 12-3	서울특별시 서초구 남부순환로350길	137130	6736	127.0351621	37.48433392
9170865	티티카카	음식	커피점/카페	커피전문점/카페/다방	서울특별시 마포구 대흥동 466-4	서울특별시 마포구 백범로20길	121811	4149	126.9441262	37.54627726
10766295	카페베네	음식	커피점/카페	커피전문점/카페/다방	서울특별시 동대문구 답십리동 495-1	서울특별시 동대문구 천호대로	130030	2604	127.0521898	37.56756683
9136369	KFC둔촌동점	음식	닭/오리요리	후라이드/양념치킨	서울특별시 강동구 둔촌동 489-8	서울특별시 강동구 양재대로	134060	5372	127.1375905	37.52990873
9136416	KFC	음식	닭/오리요리	후라이드/양념치킨	서울특별시 송파구 잠실동 10	서울특별시 송파구 올림픽로	138220	5500	127.0759279	37.51618783
9093806	김밥나라	음식	분식	라면김밥분식	서울특별시 송파구 풍납동 474-5	서울특별시 송파구 바람드리길	138040	5511	127.1222327	37.53704908
10644407	옹기미가낙지수제비	음식	분식	국수/만두/칼국수	서울특별시 강남구 일원동 673-4	서울특별시 강남구 양재대로35길	135230	6343	127.0836567	37.49006329
9136391	KFC돈암동1점	음식	닭/오리요리	후라이드/양념치킨	서울특별시 성북구 동선동1가 3-1	서울특별시 성북구 동소문로20나길	136051	2845	127.0176248	37.592126
10414634	공차	음식	커피점/카페	커피전문점/카페/다방	서울특별시 금천구 가산동 60-22	서울특별시 금천구 디지털로	153801	8511	126.8872005	37.47797806
8841233	도미노피자	음식	패스트푸드	피자전문	서울특별시 동작구 사당동 152-2	서울특별시 동작구 사당로	156090	7006	126.9783867	37.48447835
9113128	세븐몽키스	음식	커피점/카페	커피전문점/카페/다방	서울특별시 강남구 역삼동 669-18	서울특별시 강남구 논현로94길	135080	6140	127.0375388	37.50266278
9355135	김밥천국	음식	분식	라면김밥분식	서울특별시 강동구 암사동 451-14	서울특별시 강동구 고덕로	134050	5237	127.1371656	37.55500003
10788839	롯데리아마천점	음식	패스트푸드	패스트푸드	서울특별시 송파구 마천동 181	서울특별시 송파구 마천로	138120	5758	127.1509389	37.49517043
10953273	BHC치킨	음식	닭/오리요리	후라이드/양념치킨	서울특별시 종로구 관철동 7-4	서울특별시 종로구 종로14길	110111	3190	126.9870185	37.56948546
8816278	피자스쿨	음식	패스트푸드	패스트푸드	서울특별시 종로구 명륜2가 147-3	서울특별시 종로구 성균관로	110522	3074	126.9977795	37.58417418
9776565	스무디킹	음식	커피점/카페	커피전문점/카페/다방	서울특별시 중구 남대문로5가 541	서울특별시 중구 한강대로	100714	4637	126.9737396	37.55549473
11041549	엔제리너스	음식	커피점/카페	커피전문점/카페/다방	서울특별시 중구 남창동 51-1	서울특별시 중구 소월로	100778	4528	126.9761879	37.55936344
10899362	롯데리아	음식	패스트푸드	패스트푸드	서울특별시 송파구 문정동 634	서울특별시 송파구 충민로	138200	5838	127.124941	37.47760822
11040258	페리카나중곡2점	음식	닭/오리요리	후라이드/양념치킨	서울특별시 광진구 중곡동 199-27	서울특별시 광진구 면목로	143220	4903	127.0832269	37.56956898
9012623	GS25	음식	커피점/카페	커피전문점/카페/다방	서울특별시 종로구 관철동 155	서울특별시 종로구 청계천로	110111	3189	126.9850917	37.56882917
11512369	주재근베이커리	음식	제과제빵떡케익	제과점	서울특별시 강동구 상일동 121	서울특별시 강동구 고덕로80길	134707	5274	127.1685	37.55648633
11511180	미스터피자	음식	패스트푸드	피자전문	서울특별시 영등포구 여의도동 37	서울특별시 영등포구 의사당대로	150795	7322	126.924414	37.52020338
11315918	노아스	음식	커피점/카페	커피전문점/카페/다방	서울특별시 서대문구 연희동 128-25	서울특별시 서대문구 연희로11나길	120825	3707	126.9283077	37.56748036
11516500	스타벅스	음식	커피점/카페	커피전문점/카페/다방	서울특별시 성북구 안암동5가 126-1	서울특별시 성북구 인촌로	136705	2841	127.0263415	37.58709834
11470905	토프레소	음식	커피점/카페	커피전문점/카페/다방	서울특별시 성북구 종암동 83-3	서울특별시 성북구 종암로21길	136863	2803	127.0328017	37.60061301
11493026	쉐프밥버거	음식	패스트푸드	패스트푸드	서울특별시 영등포구 문래동6가 43	서울특별시 영등포구 선유서로	150096	7283	126.8837464	37.51938451
11416418	마노핀익스프레스압구정역점	음식	커피점/카페	커피전문점/카페/다방	서울특별시 강남구 신사동 668	서울특별시 강남구 압구정로	135110	6022	127.0284657	37.52642135
11206748	정성한줄	음식	분식	라면김밥분식	서울특별시 강남구 대치동 1021-10	서울특별시 강남구 삼성로	135280	6279	127.0608463	37.4983451
11483687	네네치킨	음식	닭/오리요리	후라이드/양념치킨	서울특별시 영등포구 여의도동 37	서울특별시 영등포구 의사당대로	150795	7322	126.924414	37.52020338
11178834	소호정	음식	분식	국수/만두/칼국수	서울특별시 서초구 서초동 1327-2	서울특별시 서초구 서초대로78길	137070	6621	127.0275281	37.49579585
11188202	피자알볼로	음식	패스트푸드	피자전문	서울특별시 영등포구 양평동1가 19	서울특별시 영등포구 영등포로	150862	7279	126.8881488	37.52230937
11444686	케빈즈파이	음식	커피점/카페	커피전문점/카페/다방	서울특별시 용산구 이촌동 300-3	서울특별시 용산구 이촌로	140722	4425	126.9798645	37.51714522
8694032	라바짜	음식	커피점/카페	커피전문점/카페/다방	서울특별시 용산구 이촌동 300-3	서울특별시 용산구 이촌로	140722	4425	126.9798645	37.51714522
8604411	림벅와플	음식	커피점/카페	커피전문점/카페/다방	서울특별시 관악구 봉천동 729-32	서울특별시 관악구 보라매로3길	151712	8708	126.9250567	37.4911685
8605575	버거킹	음식	패스트푸드	패스트푸드	서울특별시 송파구 문정동 116-4	서울특별시 송파구 송이로	138200	5798	127.1317058	37.48803839
8650424	신라명과	음식	제과제빵떡케익	제과점	서울특별시 구로구 구로동 650-4	서울특별시 구로구 구일로10길	152720	8323	126.8725463	37.49613035
8732315	스타벅스	음식	커피점/카페	커피전문점/카페/다방	서울특별시 구로구 오류동 55-50	서울특별시 구로구 경인로	152100	8271	126.8448498	37.49620515
8680226	할리스커피마포역점	음식	커피점/카페	커피전문점/카페/다방	서울특별시 마포구 도화동 555	서울특별시 마포구 마포대로	121779	4167	126.9454926	37.54005426
11633662	스타벅스	음식	커피점/카페	커피전문점/카페/다방	서울특별시 용산구 이태원동 56-13	서울특별시 용산구 이태원로	140200	4390	126.9894227	37.53395986
11620833	KFC서초우성점	음식	닭/오리요리	후라이드/양념치킨	서울특별시 서초구 서초동 1330-8	서울특별시 서초구 사임당로	137070	6626	127.0283369	37.49272089
11619528	네네치킨상암점	음식	닭/오리요리	후라이드/양념치킨	서울특별시 마포구 상암동 1637	서울특별시 마포구 월드컵북로47길	121798	3912	126.890673	37.57489963
11527030	가마로강정	음식	닭/오리요리	후라이드/양념치킨	서울특별시 광진구 구의동 631-1	서울특별시 광진구 광나루로56길	143761	5119	127.0965143	37.53695423
11236966	밀탑	음식	커피점/카페	커피전문점/카페/다방	서울특별시 성북구 길음동 20-1	서울특별시 성북구 동소문로	136719	2730	127.0287256	37.60839154
11592759	카페룽고	음식	커피점/카페	커피전문점/카페/다방	서울특별시 도봉구 쌍문동 195	서울특별시 도봉구 도당로	132744	1385	127.0341744	37.65995746
11629387	또래오래	음식	닭/오리요리	후라이드/양념치킨	서울특별시 영등포구 신길동 4656	서울특별시 영등포구 대방천로14길	150783	7436	126.9098531	37.49854392
11599579	에피소드	음식	커피점/카페	커피전문점/카페/다방	서울특별시 강북구 수유동 567-66	서울특별시 강북구 419로12길	142881	1012	127.0077853	37.64662844
11621267	투썸플레이스신촌점	음식	커피점/카페	커피전문점/카페/다방	서울특별시 서대문구 창천동 30-8	서울특별시 서대문구 연세로	120834	3789	126.9366468	37.55577919
11613388	또래오래	음식	닭/오리요리	후라이드/양념치킨	서울특별시 노원구 공릉동 708	서울특별시 노원구 섬밭로	139744	1851	127.0679852	37.63077459
11540933	도토루커피숍수유지점	음식	커피점/카페	커피전문점/카페/다방	서울특별시 강북구 수유동 582-9	서울특별시 강북구 419로8길	142881	1012	127.0085013	37.64732825
11551324	빠띠시에	음식	제과제빵떡케익	제과점	서울특별시 송파구 오금동 164	서울특별시 송파구 동남로24길	138739	5740	127.137093	37.49943125
11546712	탐앤탐스	음식	커피점/카페	커피전문점/카페/다방	서울특별시 강남구 삼성동 159	서울특별시 강남구 영동대로	135798	6164	127.0591391	37.51182033
11591448	피자스쿨광장점	음식	패스트푸드	피자전문	서울특별시 광진구 광장동 566	서울특별시 광진구 아차산로	143757	4984	127.0955908	37.54315542
11541270	엔제리너스	음식	커피점/카페	커피전문점/카페/다방	서울특별시 성동구 행당동 346	서울특별시 성동구 행당로	133777	4717	127.0273846	37.55477747
11601771	마포만두	음식	분식	국수/만두/칼국수	서울특별시 중구 을지로3가 295-4	서울특별시 중구 충무로7길	100846	4550	126.9922961	37.56594448
11644145	피자스쿨	음식	패스트푸드	피자전문	서울특별시 동작구 대방동 502	서울특별시 동작구 등용로	156760	6940	126.9309713	37.51254997
11600411	이지바이	음식	제과제빵떡케익	제과점	서울특별시 용산구 이촌동 300-10	서울특별시 용산구 이촌로88길	140030	4425	126.9786984	37.51804521
11626988	버거킹	음식	패스트푸드	패스트푸드	서울특별시 영등포구 여의도동 37	서울특별시 영등포구 의사당대로	150795	7322	126.924414	37.52020338
11480614	뚜레쥬르건대스타시티점	음식	제과제빵떡케익	제과점	서울특별시 광진구 자양동 227-7	서울특별시 광진구 아차산로	143730	5065	127.0729442	37.53699681
11518489	아뜰리에에마미	음식	커피점/카페	커피전문점/카페/다방	서울특별시 성북구 동선동3가 1	서울특별시 성북구 동소문로26길	136053	2845	127.0192146	37.59437381
3106116	뚜레쥬르	음식	제과제빵떡케익	제과점	서울특별시 강동구 성내동 416	서울특별시 강동구 양재대로	134030	5404	127.1360315	37.52872596
3599407	파리바게뜨개포행복점	음식	제과제빵떡케익	제과점	서울특별시 강남구 개포동 172-11	서울특별시 강남구 선릉로	135240	6325	127.0595251	37.48375546
4637546	카페칸타타	음식	커피점/카페	커피전문점/카페/다방	서울특별시 서대문구 대현동 60-8	서울특별시 서대문구 이화여대길	120808	3764	126.9458589	37.55904247
4000882	파리바게뜨	음식	제과제빵떡케익	제과점	서울특별시 중구 신당동 140-34	서울특별시 중구 다산로44길	100819	4578	127.0199585	37.5652673
11607986	커피빈	음식	커피점/카페	커피전문점/카페/다방	서울특별시 영등포구 여의도동 37	서울특별시 영등포구 의사당대로	150795	7322	126.924414	37.52020338
8625310	신전떡볶이풍납점	음식	분식	떡볶이전문	서울특별시 송파구 풍납동 404	서울특별시 송파구 풍성로26길	138040	5531	127.1160072	37.52955992
8713849	죠스떡볶기까치산역점	음식	분식	라면김밥분식	서울특별시 강서구 화곡동 343-57	서울특별시 강서구 강서로	157010	7774	126.846684	37.53134558
8717145	죠스떡볶이	음식	분식	떡볶이전문	서울특별시 마포구 도화동 555	서울특별시 마포구 마포대로	121779	4167	126.9454926	37.54005426
8720517	죠샌드위치올림픽공원점	음식	패스트푸드	샌드위치전문점	서울특별시 강동구 성내동 460-1	서울특별시 강동구 강동대로	134030	5400	127.1243283	37.52620691
8630913	피티카페비엠에스점	음식	커피점/카페	커피전문점/카페/다방	서울특별시 강남구 역삼동 829	서울특별시 강남구 역삼로7길	135080	6244	127.0328796	37.49561451
10157256	코코몽키즈랜드	음식	커피점/카페	커피전문점/카페/다방	서울특별시 송파구 문정동 634	서울특별시 송파구 충민로	138200	5838	127.124941	37.47760822
10688006	수베이커리	음식	제과제빵떡케익	제과점	서울특별시 동작구 대방동 502	서울특별시 동작구 등용로	156760	6940	126.9309713	37.51254997
10809288	수정분식	음식	분식	라면김밥분식	서울특별시 종로구 예지동 2-1	서울특별시 종로구 창경궁로	110833	3195	126.9995986	37.57007029
10395773	김가네	음식	분식	라면김밥분식	서울특별시 강남구 역삼동 700	서울특별시 강남구 언주로	135080	6147	127.0420451	37.50493403
9014682	파리바게뜨	음식	제과제빵떡케익	제과점	서울특별시 관악구 봉천동 862-3	서울특별시 관악구 관악로	151050	8787	126.9522407	37.48069923
8993814	키세키	음식	제과제빵떡케익	제과점	서울특별시 마포구 서교동 346-18	서울특별시 마포구 홍익로2길	121837	4055	126.9244494	37.55555157
8923352	커피앤틱	음식	커피점/카페	커피전문점/카페/다방	서울특별시 중구 예장동 8-134	서울특별시 중구 소파로	100250	4630	126.985851	37.55707709
9172036	파리바게뜨	음식	제과제빵떡케익	제과점	서울특별시 금천구 시흥동 935-27	서울특별시 금천구 독산로	153030	8649	126.9047997	37.44883132
6725444	동우춘천닭갈비	음식	닭/오리요리	닭갈비전문	서울특별시 서초구 양재동 8-59	서울특별시 서초구 남부순환로356길	137130	6742	127.0383989	37.48321597
7003184	BHC치킨	음식	닭/오리요리	후라이드/양념치킨	서울특별시 강서구 등촌동 526-22	서울특별시 강서구 등촌로51길	157030	7667	126.8613263	37.54908491
11717476	분식점	음식	분식	라면김밥분식	서울특별시 노원구 중계동 141-5	서울특별시 노원구 한글비석로22길	139220	1662	127.0742687	37.66125205
11720327	국대떡볶이길음역점	음식	분식	떡볶이전문	서울특별시 성북구 길음동 1276	서울특별시 성북구 동소문로	136757	2735	127.0245428	37.60345539
11712945	멕시칸치킨창신점	음식	닭/오리요리	후라이드/양념치킨	서울특별시 종로구 창신동 703	서울특별시 종로구 낙산길	110540	3092	127.0111659	37.58048468
11720675	맘스터치목동2호점	음식	닭/오리요리	후라이드/양념치킨	서울특별시 양천구 목동 782-1	서울특별시 양천구 등촌로	158050	7965	126.8637053	37.53550218
11712956	에디슨DHA치킨남산타운점	음식	닭/오리요리	후라이드/양념치킨	서울특별시 중구 신당동 844	서울특별시 중구 다산로	100754	4595	127.0056418	37.54720778
11732442	치킨매니아정릉1호점	음식	닭/오리요리	후라이드/양념치킨	서울특별시 성북구 정릉동 239	서울특별시 성북구 솔샘로25길	136775	2702	127.0069463	37.6185722
11722410	쿵푸티	음식	커피점/카페	커피전문점/카페/다방	서울특별시 영등포구 여의도동 37	서울특별시 영등포구 의사당대로	150795	7322	126.924414	37.52020338
11696346	CNN카페한양대서울캠퍼스점	음식	커피점/카페	커피전문점/카페/다방	서울특별시 성동구 행당동 17	서울특별시 성동구 왕십리로	133791	4763	127.0424353	37.55847765
11700217	코리안바베큐종암점	음식	닭/오리요리	후라이드/양념치킨	서울특별시 성북구 종암동 83-3	서울특별시 성북구 종암로21길	136863	2803	127.0328017	37.60061301
11713358	맥도날드청량리점	음식	패스트푸드	패스트푸드	서울특별시 동대문구 청량리동 268	서울특별시 동대문구 왕산로	130867	2490	127.0455563	37.5808849
11703661	훌랄라참숯바베큐	음식	닭/오리요리	후라이드/양념치킨	서울특별시 노원구 월계동 556	서울특별시 노원구 초안산로1길	139770	1881	127.0534171	37.6270815
11721518	치킨신드롬쌍문1호	음식	닭/오리요리	후라이드/양념치킨	서울특별시 도봉구 쌍문동 59	서울특별시 도봉구 해등로	132777	1430	127.0320273	37.65772332
11709528	교촌치킨	음식	닭/오리요리	후라이드/양념치킨	서울특별시 서초구 우면동 59	서울특별시 서초구 바우뫼로7길	137781	6762	127.0231164	37.47070105
11731887	파리크라상	음식	제과제빵떡케익	제과점	서울특별시 용산구 동자동 43-205	서울특별시 용산구 한강대로	140761	4320	126.9717115	37.55482833
11711567	잠바주스용산미군기지점	음식	커피점/카페	생과일주스전문점	서울특별시 용산구 용산동2가 2-15	서울특별시 용산구 두텁바위로	140833	4353	126.9791638	37.54449495
11702898	더카페	음식	커피점/카페	커피전문점/카페/다방	서울특별시 중랑구 면목동 168-2	서울특별시 중랑구 면목천로	131200	2236	127.0811954	37.5792034
11715447	카페그래서	음식	커피점/카페	커피전문점/카페/다방	서울특별시 영등포구 영등포동7가 57	서울특별시 영등포구 영신로	150037	7244	126.9032776	37.52515395
11617047	아딸	음식	분식	떡볶이전문	서울특별시 강동구 둔촌동 89	서울특별시 강동구 진황도로61길	134777	5367	127.1438079	37.52939531
11572236	교촌치킨	음식	닭/오리요리	후라이드/양념치킨	서울특별시 성동구 응봉동 100	서울특별시 성동구 독서당로62길	133771	4741	127.0335109	37.55189036
11696265	헨젤과그레텔	음식	제과제빵떡케익	제과점	서울특별시 도봉구 창동 804	서울특별시 도봉구 덕릉로63가길	132784	1465	127.0387577	37.64291131
11725235	토마토김밥화곡역점	음식	분식	라면김밥분식	서울특별시 강서구 화곡동 1073-10	서울특별시 강서구 화곡로	157010	7715	126.837569	37.54055489
11627927	미스터무시팡	음식	제과제빵떡케익	제과점	서울특별시 용산구 이촌동 300-10	서울특별시 용산구 이촌로88길	140030	4425	126.9786984	37.51804521
11711168	아티제이대목동점	음식	제과제빵떡케익	제과점	서울특별시 양천구 목동 911-1	서울특별시 양천구 안양천로	158710	7985	126.8867317	37.53697396
11735218	땡큐파닭	음식	닭/오리요리	후라이드/양념치킨	서울특별시 관악구 신림동 808-497	서울특별시 관악구 원신2길	151862	8846	126.9317166	37.46976589
11745339	나포칼국수	음식	분식	국수/만두/칼국수	서울특별시 영등포구 여의도동 30-3	서울특별시 영등포구 국제금융로7길	150882	7338	126.9330783	37.52425558
11756224	cafeEIGHT.TON	음식	커피점/카페	커피전문점/카페/다방	서울특별시 관악구 봉천동 1660-9	서울특별시 관악구 봉천로	151050	8792	126.9617397	37.47732304
11764952	BHC치킨	음식	닭/오리요리	후라이드/양념치킨	서울특별시 용산구 청파동1가 132-3	서울특별시 용산구 청파로71길	140869	4308	126.9694915	37.54920449
11767439	포스트카페	음식	커피점/카페	커피전문점/카페/다방	서울특별시 종로구 혜화동 111-3	서울특별시 종로구 혜화로	110530	3075	127.0006892	37.58587478
11773683	달려라달봉이떡볶이	음식	분식	떡볶이전문	서울특별시 성북구 길음동 1276	서울특별시 성북구 동소문로	136757	2735	127.0245428	37.60345539
11785849	에꼴드마카롱	음식	커피점/카페	커피전문점/카페/다방	서울특별시 도봉구 방학동 685-3	서울특별시 도봉구 도봉로147길	132020	1341	127.0393314	37.66522556
11752637	푸하하크림빵	음식	제과제빵떡케익	제과점	서울특별시 마포구 동교동 153-3	서울특별시 마포구 양화로19길	121816	3994	126.9244115	37.55897517
11783867	4교시와플	음식	패스트푸드	패스트푸드	서울특별시 관악구 봉천동 1656-27	서울특별시 관악구 인헌길	151050	8793	126.9668229	37.47519606
11784851	효성어묵	음식	분식	라면김밥분식	서울특별시 성동구 금호동3가 351	서울특별시 성동구 독서당로	133805	4730	127.0225985	37.54861083
11779715	오백국수	음식	분식	국수/만두/칼국수	서울특별시 강동구 둔촌동 59-6	서울특별시 강동구 명일로	134060	5361	127.1444031	37.53374272
11773598	커피식스	음식	커피점/카페	커피전문점/카페/다방	서울특별시 광진구 화양동 3-22	서울특별시 광진구 능동로	143914	5011	127.0719708	37.54341367
11763964	피자굼터	음식	패스트푸드	피자전문	서울특별시 노원구 월계동 922	서울특별시 노원구 마들로1길	139916	1910	127.0639733	37.62365166
11761851	신전떡볶이	음식	분식	떡볶이전문	서울특별시 관악구 신림동 246-1	서울특별시 관악구 대학5길	151859	8814	126.9382254	37.46916679
11751540	도로시	음식	커피점/카페	커피전문점/카페/다방	서울특별시 강동구 명일동 312-95	서울특별시 강동구 양재대로	134070	5266	127.1443567	37.5516644
11769280	맑은솥닭	음식	닭/오리요리	후라이드/양념치킨	서울특별시 성북구 길음동 20-1	서울특별시 성북구 동소문로	136719	2730	127.0287256	37.60839154
11781766	플라워카페활짝	음식	커피점/카페	커피전문점/카페/다방	서울특별시 송파구 오금동 164	서울특별시 송파구 동남로24길	138739	5740	127.137093	37.49943125
11776146	제이독	음식	커피점/카페	커피전문점/카페/다방	서울특별시 강서구 방화동 607-211	서울특별시 강서구 방화동로	157220	7616	126.8128265	37.56666386
11782786	훼밀리분식	음식	분식	라면김밥분식	서울특별시 양천구 목동 736-9	서울특별시 양천구 목동중앙남로	158050	7960	126.8671156	37.53669729
11771149	요거프레소	음식	커피점/카페	커피전문점/카페/다방	서울특별시 중구 장충동2가 200-102	서울특별시 중구 동호로	100856	4605	127.0066558	37.55863256
11778980	간단하지만특별한화피디Cafe	음식	커피점/카페	커피전문점/카페/다방	서울특별시 종로구 신문로1가 58-1	서울특별시 종로구 새문안로	110061	3175	126.972154	37.57040218
11761245	유나네후다닭통닭	음식	닭/오리요리	후라이드/양념치킨	서울특별시 도봉구 창동 585-141	서울특별시 도봉구 덕릉로57길	132040	1468	127.0366096	37.63990236
11779680	깡통속별별이야기	음식	커피점/카페	커피전문점/카페/다방	서울특별시 성북구 장위동 238-280	서울특별시 성북구 장위로	136140	2768	127.0510496	37.61370008
11754595	커피체리	음식	커피점/카페	커피전문점/카페/다방	서울특별시 성동구 성수동2가 277-118	서울특별시 성동구 성수이로	133120	4796	127.0582869	37.54812595
11763241	쥬씨명일동점	음식	커피점/카페	커피전문점/카페/다방	서울특별시 강동구 명일동 327-1	서울특별시 강동구 구천면로	134070	5292	127.146151	37.55013658
11781589	뮤커피	음식	커피점/카페	커피전문점/카페/다방	서울특별시 중랑구 면목동 1064-7	서울특별시 중랑구 용마산로70길	131200	2195	127.0940464	37.58192478
11771101	케이크미유	음식	제과제빵떡케익	케익전문점	서울특별시 성북구 장위동 63-100	서울특별시 성북구 화랑로	136140	2776	127.0578725	37.61157423
11752857	파리바게뜨	음식	제과제빵떡케익	제과점	서울특별시 강서구 공항동 1373	서울특별시 강서구 하늘길	157240	7505	126.8033425	37.55877421
11753307	안선생김밥	음식	분식	라면김밥분식	서울특별시 양천구 신정동 986-1	서울특별시 양천구 은행정로	158070	8021	126.859264	37.52474603
11776253	먹쉬돈나	음식	분식	떡볶이전문	서울특별시 은평구 응암동 88-11	서울특별시 은평구 응암로	122010	3461	126.9221151	37.60129387
11775338	카페지애	음식	커피점/카페	커피전문점/카페/다방	서울특별시 도봉구 쌍문동 38-7	서울특별시 도봉구 방학로3길	132030	1394	127.0384227	37.65834328
11772010	엘에이김밥	음식	분식	라면김밥분식	서울특별시 노원구 상계동 1055	서울특별시 노원구 동일로237길	139893	1613	127.0532586	37.6734925
11774573	베누스타	음식	커피점/카페	커피전문점/카페/다방	서울특별시 성북구 정릉동 16-1	서울특별시 성북구 서경로	136100	2713	127.0135468	37.61540186
11766270	헤리스	음식	커피점/카페	커피전문점/카페/다방	서울특별시 서초구 양재동 401-6	서울특별시 서초구 논현로1길	137130	6791	127.0500683	37.47156956
11770446	분식나라	음식	분식	라면김밥분식	서울특별시 노원구 상계동 111-257	서울특별시 노원구 상계로37길	139200	1635	127.0787643	37.6707481
11772004	라패라면패밀리	음식	분식	라면김밥분식	서울특별시 양천구 목동 907-5	서울특별시 양천구 목동서로	158729	7983	126.8787105	37.53614119
11781217	지베서	음식	커피점/카페	커피전문점/카페/다방	서울특별시 강남구 역삼동 774-33	서울특별시 강남구 역삼로38길	135080	6226	127.0437445	37.49673017
11764679	빈센트	음식	커피점/카페	커피전문점/카페/다방	서울특별시 영등포구 양평동4가 100	서울특별시 영등포구 양평로	150867	7208	126.8944765	37.5373801
11751181	맥도날드	음식	패스트푸드	패스트푸드	서울특별시 성북구 동선동1가 2-1	서울특별시 성북구 동소문로22길	136051	2845	127.0174507	37.59244893
11759898	더베스트커피	음식	커피점/카페	커피전문점/카페/다방	서울특별시 강서구 가양동 1458	서울특별시 강서구 강서로	157200	7529	126.8420815	37.57069371
11767586	동대문엽기떡볶이	음식	분식	떡볶이전문	서울특별시 강남구 수서동 708	서울특별시 강남구 광평로51길	135884	6347	127.1009739	37.48969174
11770591	쥬씨먹골역점	음식	커피점/카페	커피전문점/카페/다방	서울특별시 중랑구 묵동 175-6	서울특별시 중랑구 공릉로	131140	2033	127.0777272	37.61254201
11786435	마크툽카페앤펌	음식	커피점/카페	커피전문점/카페/다방	서울특별시 마포구 연남동 375-116	서울특별시 마포구 성미산로23길	121867	3979	126.920007	37.56614327
11776135	카페마리	음식	커피점/카페	커피전문점/카페/다방	서울특별시 서대문구 북아현동 126-10	서울특별시 서대문구 신촌로	120819	3758	126.9586795	37.5576425
11761790	원더월커피로스터스	음식	커피점/카페	커피전문점/카페/다방	서울특별시 동대문구 답십리동 472-86	서울특별시 동대문구 답십리로	130030	2595	127.0494953	37.5747265
11777748	카페오로시	음식	커피점/카페	커피전문점/카페/다방	서울특별시 광진구 자양동 769-7	서울특별시 광진구 자양로	143190	5026	127.0828939	37.53947131
11771384	에스에스푸드마켓에스에스지커피하우스	음식	커피점/카페	커피전문점/카페/다방	서울특별시 양천구 목동 404-13	서울특별시 양천구 오목로	158050	8007	126.8767663	37.52394066
11769775	CafeRoyalNature	음식	커피점/카페	커피전문점/카페/다방	서울특별시 서초구 방배동 816-17	서울특별시 서초구 방배로31길	137060	6562	126.990019	37.49056137
11751001	이후	음식	커피점/카페	커피전문점/카페/다방	서울특별시 마포구 창전동 2-31	서울특별시 마포구 서강로11길	121880	4061	126.9326359	37.55370665
11772995	크레센도	음식	커피점/카페	커피전문점/카페/다방	서울특별시 관악구 봉천동 1000	서울특별시 관악구 관악로	151755	8730	126.9576913	37.49203762
11768168	이디야커피	음식	커피점/카페	커피전문점/카페/다방	서울특별시 동대문구 용두동 119-1	서울특별시 동대문구 왕산로	130820	2584	127.0308821	37.57747653
11779225	BHC치킨	음식	닭/오리요리	후라이드/양념치킨	서울특별시 관악구 신림동 532-26	서울특별시 관악구 조원로	151876	8767	126.9125233	37.48442208
11775563	Iambarista	음식	커피점/카페	커피전문점/카페/다방	서울특별시 서초구 반포동 1-8	서울특별시 서초구 신반포로	137765	6506	126.9982966	37.50833753
11767862	수키친	음식	분식	라면김밥분식	서울특별시 노원구 중계동 360-2	서울특별시 노원구 중계로	139924	1742	127.0756903	37.64989214
11750527	짱분식	음식	분식	라면김밥분식	서울특별시 노원구 하계동 354	서울특별시 노원구 동일로207길	139734	1775	127.0608456	37.63724149
11784623	표경민커피	음식	커피점/카페	커피전문점/카페/다방	서울특별시 구로구 개봉동 260-1	서울특별시 구로구 개봉로18길	152090	8332	126.8567757	37.49133841
11757215	다사랑	음식	닭/오리요리	후라이드/양념치킨	서울특별시 종로구 관철동 13-9	서울특별시 종로구 삼일대로19길	110111	3190	126.9864867	37.56947188
11769893	알랭상셰	음식	제과제빵떡케익	제과점	서울특별시 용산구 이태원동 120-22	서울특별시 용산구 이태원로23길	140200	4350	126.9918099	37.53565621
11777684	대장금손칼국수	음식	분식	국수/만두/칼국수	서울특별시 강북구 수유동 334-34	서울특별시 강북구 삼양로	142070	1041	127.0165136	37.64298026
11749772	만담만두	음식	분식	라면김밥분식	서울특별시 구로구 구로동 685-212	서울특별시 구로구 구일로4길	152050	8324	126.8762925	37.49367015
11773013	와플대학천호로데오캠퍼스	음식	패스트푸드	패스트푸드	서울특별시 강동구 천호동 410-13	서울특별시 강동구 천호대로157길	134020	5335	127.1277394	37.5393245
11769358	신호네잔치국수	음식	분식	국수/만두/칼국수	서울특별시 구로구 개봉동 154-115	서울특별시 구로구 경인로35길	152090	8233	126.8552954	37.49793772
11758503	코니에프앤비M	음식	제과제빵떡케익	제과점	서울특별시 성동구 성수동2가 289-4	서울특별시 성동구 아차산로7길	133120	4795	127.0553633	37.54753494
11785472	파트너스치킨	음식	닭/오리요리	후라이드/양념치킨	서울특별시 광진구 자양동 9-31	서울특별시 광진구 동일로20길	143190	5072	127.0674959	37.54017968
11770179	JUICY내방역	음식	커피점/카페	커피전문점/카페/다방	서울특별시 서초구 방배동 875-1	서울특별시 서초구 방배로	137060	6588	126.9931628	37.48886719
11784567	카페엔스토어이끌리오	음식	커피점/카페	커피전문점/카페/다방	서울특별시 은평구 녹번동 153-21	서울특별시 은평구 서오릉로	122834	3459	126.9238432	37.6047606
11783205	브레드디	음식	제과제빵떡케익	제과점	서울특별시 노원구 중계동 143	서울특별시 노원구 덕릉로	139220	1662	127.0751894	37.66012397
11777468	빽다방-목동사거리점	음식	커피점/카페	커피전문점/카페/다방	서울특별시 강서구 화곡동 781-13	서울특별시 강서구 곰달래로	157010	7786	126.8631562	37.53217207
11751238	영월손칼국수	음식	분식	국수/만두/칼국수	서울특별시 구로구 구로동 730-97	서울특별시 구로구 구로동로28길	152050	8311	126.8852025	37.49070002
11782340	먹고싶닭	음식	닭/오리요리	후라이드/양념치킨	서울특별시 서초구 서초동 1446-1	서울특별시 서초구 효령로	137070	6718	127.0150909	37.48353757
11759896	서가원김밥	음식	분식	라면김밥분식	서울특별시 강동구 둔촌동 630	서울특별시 강동구 명일로	134767	5360	127.1450549	37.5341349
11785079	교촌치킨	음식	닭/오리요리	후라이드/양념치킨	서울특별시 마포구 상암동 34-45	서울특별시 마포구 월드컵북로48길	121830	3930	126.8945401	37.57673797
11775497	베이크팡행당점	음식	제과제빵떡케익	케익전문점	서울특별시 성동구 행당동 322-16	서울특별시 성동구 행당로	133070	4716	127.0308318	37.55777026
11783638	오떡순	음식	분식	떡볶이전문	서울특별시 중랑구 면목동 350-1	서울특별시 중랑구 면목로33길	131200	2244	127.0837867	37.57653842
11767371	공차	음식	커피점/카페	커피전문점/카페/다방	서울특별시 중구 신당동 374-22	서울특별시 중구 동호로	100834	4607	127.0106378	37.55535916
11758085	더카페	음식	커피점/카페	커피전문점/카페/다방	서울특별시 구로구 구로동 170-5	서울특별시 구로구 디지털로33길	152769	8377	126.8952989	37.48697443
11778681	메이앤토니	음식	커피점/카페	커피전문점/카페/다방	서울특별시 서초구 방배동 856-41	서울특별시 서초구 동광로14길	137060	6571	126.9895441	37.48888135
11755787	한입	음식	제과제빵떡케익	제과점	서울특별시 강남구 도곡동 467-17	서울특별시 강남구 언주로30길	135270	6293	127.0541634	37.48929922
11769188	옹골찬집밥&김밥	음식	분식	라면김밥분식	서울특별시 노원구 상계동 1110	서울특별시 노원구 동일로241길	139746	1606	127.0528951	37.67801275
11785678	김가네	음식	분식	라면김밥분식	서울특별시 금천구 가산동 60-5	서울특별시 금천구 디지털로9길	153709	8512	126.8872665	37.4796276
11748110	밀꽃홍두깨손칼국수	음식	분식	국수/만두/칼국수	서울특별시 성북구 장위동 66-303	서울특별시 성북구 돌곶이로27길	136140	2770	127.051717	37.6102004
11776743	커피베이강서공항점	음식	커피점/카페	커피전문점/카페/다방	서울특별시 강서구 방화동 606-103	서울특별시 강서구 방화동로	157220	7615	126.811982	37.56567324
11773293	프레시홀릭	음식	커피점/카페	커피전문점/카페/다방	서울특별시 강남구 도곡동 527-3	서울특별시 강남구 선릉로	135270	6276	127.0527073	37.49536069
11781139	알라딘중고서점커피	음식	커피점/카페	커피전문점/카페/다방	서울특별시 은평구 대조동 198-27	서울특별시 은평구 연서로	122842	3385	126.9199338	37.61743842
11765648	브레드영	음식	제과제빵떡케익	제과점	서울특별시 강북구 번동 316-1	서울특별시 강북구 오현로31길	142060	1143	127.0387365	37.62960285
11755500	먹방스토리	음식	분식	라면김밥분식	서울특별시 구로구 개봉동 370-40	서울특별시 구로구 개봉로1나길	152090	8355	126.8537373	37.48371317
11765466	스타벅스포스코사거리점	음식	커피점/카페	커피전문점/카페/다방	서울특별시 강남구 삼성동 157-36	서울특별시 강남구 테헤란로	135090	6168	127.0574281	37.50756271
11772356	커피홀	음식	커피점/카페	커피전문점/카페/다방	서울특별시 중구 초동 21-9	서울특별시 중구 마른내로	100796	4550	126.9916879	37.56487606
11773493	쥬씨구로깔깔거리점	음식	커피점/카페	커피전문점/카페/다방	서울특별시 구로구 구로동 1124-21	서울특별시 구로구 디지털로32길	152050	8391	126.9004323	37.4831298
11748143	쑤앤쑤	음식	커피점/카페	커피전문점/카페/다방	서울특별시 강서구 내발산동 669-6	서울특별시 강서구 우장산로	157280	7680	126.8376329	37.55465669
11774640	피자애	음식	패스트푸드	피자전문	서울특별시 양천구 신정동 1030-5	서울특별시 양천구 신월로	158070	8082	126.8540032	37.52106391
11778338	치킨매니아	음식	닭/오리요리	후라이드/양념치킨	서울특별시 마포구 노고산동 106-83	서울특별시 마포구 백범로2길	121807	4100	126.9361945	37.55416225
11761753	카페902	음식	커피점/카페	커피전문점/카페/다방	서울특별시 성북구 돈암동 625-2	서울특별시 성북구 정릉로	136060	2806	127.0252978	37.60201096
11774430	인문까페엣꿈	음식	커피점/카페	커피전문점/카페/다방	서울특별시 마포구 신수동 88-16	서울특별시 마포구 광성로4길	121854	4096	126.9379595	37.54941164
11774122	오빠맘마	음식	분식	라면김밥분식	서울특별시 서초구 방배동 437-26	서울특별시 서초구 방배천로16길	137060	6677	126.9840018	37.48231018
11783491	바지락칼국수	음식	분식	국수/만두/칼국수	서울특별시 성동구 성수동2가 277-58	서울특별시 성동구 아차산로	133120	4797	127.0599138	37.54383189
11763994	이디야커피	음식	커피점/카페	커피전문점/카페/다방	서울특별시 중구 오장동 69-29	서울특별시 중구 마른내로	100310	4547	127.0001131	37.56460532
11757323	더치킨	음식	닭/오리요리	후라이드/양념치킨	서울특별시 서초구 서초동 1363-5	서울특별시 서초구 강남대로37길	137070	6735	127.0319761	37.48500168
11766107	홍스치킨	음식	닭/오리요리	후라이드/양념치킨	서울특별시 중랑구 면목동 74-54	서울특별시 중랑구 상봉로11길	131200	2162	127.0920354	37.58995567
11777356	꿀보치킨	음식	닭/오리요리	후라이드/양념치킨	서울특별시 중랑구 면목동 157-16	서울특별시 중랑구 동일로96길	131200	2223	127.0823965	37.58465506
11785643	겟썸커피	음식	커피점/카페	커피전문점/카페/다방	서울특별시 송파구 송파동 56-6	서울특별시 송파구 오금로16길	138170	5618	127.1086182	37.51061822
11775352	줄리노	음식	패스트푸드	패스트푸드	서울특별시 양천구 목동 914	서울특별시 양천구 안양천로	158050	7990	126.8792216	37.53072179
11769721	생명나무	음식	커피점/카페	커피전문점/카페/다방	서울특별시 노원구 공릉동 622	서울특별시 노원구 동일로174길	139240	1849	127.0768966	37.62017634
11762022	버거킹	음식	패스트푸드	패스트푸드	서울특별시 마포구 상암동 1604	서울특별시 마포구 성암로	121904	3925	126.8918047	37.58027141
11763120	다래홍두깨칼국수	음식	분식	국수/만두/칼국수	서울특별시 구로구 고척동 51-1	서울특별시 구로구 중앙로10길	152080	8218	126.8629777	37.50367947
11753640	행복	음식	패스트푸드	패스트푸드	서울특별시 강동구 상일동 476	서울특별시 강동구 구천면로	134792	5279	127.1596528	37.55111648
11770773	신탕국물떡볶이강동미사점	음식	분식	떡볶이전문	서울특별시 강동구 강일동 684	서울특별시 강동구 아리수로94길	134736	5213	127.1772482	37.56272886
11775620	스터디빈	음식	커피점/카페	커피전문점/카페/다방	서울특별시 동대문구 회기동 25	서울특별시 동대문구 회기로21길	130872	2453	127.0531143	37.59289361
11755004	카페별달밤	음식	커피점/카페	커피전문점/카페/다방	서울특별시 종로구 명륜1가 98-1	서울특별시 종로구 성균관로	110521	3069	126.9968715	37.58602261
11753071	커피앨리스	음식	커피점/카페	커피전문점/카페/다방	서울특별시 중구 충무로4가 154-1	서울특별시 중구 충무로2길	100862	4557	126.9936337	37.56243281
11764224	카페수프레모	음식	커피점/카페	커피전문점/카페/다방	서울특별시 서초구 서초동 1639-7	서울특별시 서초구 서초대로60길	137070	6632	127.018701	37.49453346
11754318	최가네칼국수	음식	분식	국수/만두/칼국수	서울특별시 종로구 종로3가 109-2	서울특별시 종로구 수표로20길	110123	3192	126.9900796	37.56998023
11772264	시니앤커피	음식	커피점/카페	커피전문점/카페/다방	서울특별시 양천구 신월동 517-4	서울특별시 양천구 오목로	158090	8029	126.8423833	37.52191469
11775904	쥬씨	음식	커피점/카페	커피전문점/카페/다방	서울특별시 서초구 서초동 1446-1	서울특별시 서초구 효령로	137070	6718	127.0150909	37.48353757
11772944	신창동국수집	음식	분식	국수/만두/칼국수	서울특별시 도봉구 창동 568-6	서울특별시 도봉구 덕릉로	132040	1474	127.0397005	37.64008974
11769899	파파샌드	음식	패스트푸드	샌드위치전문점	서울특별시 종로구 평창동 158-1	서울특별시 종로구 평창문화로	110847	3009	126.968991	37.60685761
11774278	CaffeAttico	음식	커피점/카페	커피전문점/카페/다방	서울특별시 강서구 마곡동 793	서울특별시 강서구 강서로	157210	7794	126.8389312	37.56215704
11765204	미향옛날제과제빵	음식	제과제빵떡케익	제과점	서울특별시 강북구 미아동 734-241	서울특별시 강북구 삼양로	142816	1173	127.020603	37.62148857
11783139	BHC치킨	음식	닭/오리요리	후라이드/양념치킨	서울특별시 구로구 고척동 63-6	서울특별시 구로구 경인로	152080	8275	126.8672243	37.49882762
11776328	까페부오노	음식	커피점/카페	커피전문점/카페/다방	서울특별시 성북구 종암동 30-68	서울특별시 성북구 회기로	136858	2796	127.0369897	37.59199726
11758315	믹존스피자	음식	패스트푸드	피자전문	서울특별시 용산구 이태원동 239-4	서울특별시 용산구 회나무로	140200	4346	126.9938321	37.54010661
11752703	스타김밥	음식	분식	라면김밥분식	서울특별시 강남구 청담동 119-11	서울특별시 강남구 도산대로	135955	6011	127.047948	37.52461572
11762620	연남식당	음식	닭/오리요리	닭갈비전문	서울특별시 마포구 연남동 225-35	서울특별시 마포구 동교로	121865	3980	126.9256109	37.56372555
11776896	뉴욕11번가스트리트펍&치킨클럽	음식	닭/오리요리	후라이드/양념치킨	서울특별시 서대문구 창천동 53-79	서울특별시 서대문구 연세로11길	120834	3787	126.9348151	37.55883522
11778218	카페드롭탑	음식	커피점/카페	커피전문점/카페/다방	서울특별시 강남구 논현동 62	서울특별시 강남구 도산대로	135010	6048	127.03214	37.52048656
11771967	추억속의그다방	음식	커피점/카페	커피전문점/카페/다방	서울특별시 서초구 서초동 1658-4	서울특별시 서초구 서초대로52길	137070	6634	127.0148022	37.49260879
11786571	록키마운틴초콜릿팩토리	음식	커피점/카페	커피전문점/카페/다방	서울특별시 영등포구 여의도동 14-3	서울특별시 영등포구 국회대로72길	150871	7238	126.9199014	37.53032597
11754926	산책	음식	커피점/카페	커피전문점/카페/다방	서울특별시 금천구 시흥동 1013-7	서울특별시 금천구 금하로	153030	8656	126.9145766	37.45033617
11776677	콘체르토	음식	커피점/카페	커피전문점/카페/다방	서울특별시 강동구 천호동 291-20	서울특별시 강동구 구천면로41길	134020	5319	127.1314596	37.5473533
11754065	다담샌드위치	음식	패스트푸드	샌드위치전문점	서울특별시 서초구 방배동 935-39	서울특별시 서초구 방배로23길	137060	6672	126.9938863	37.4863504
11767599	빨강떡볶이	음식	분식	떡볶이전문	서울특별시 영등포구 영등포동4가 434-14	서울특별시 영등포구 영중로3길	150034	7305	126.9051312	37.51676442
11782677	서울식품	음식	분식	라면김밥분식	서울특별시 노원구 상계동 389-599	서울특별시 노원구 상계로27길	139200	1682	127.0691907	37.66037413
11750891	호원당	음식	커피점/카페	전통찻집/인삼찻집	서울특별시 종로구 관훈동 16	서울특별시 종로구 인사동길	110300	3148	126.9859329	37.57357588
11749317	우리국수	음식	분식	국수/만두/칼국수	서울특별시 성동구 사근동 181-6	서울특별시 성동구 사근동12길	133817	4762	127.0482716	37.56057022
11775767	빽다방	음식	커피점/카페	커피전문점/카페/다방	서울특별시 강남구 역삼동 669-9	서울특별시 강남구 봉은사로30길	135080	6140	127.0371055	37.50293858
11750743	더벤티커피전문점	음식	커피점/카페	커피전문점/카페/다방	서울특별시 강남구 대치동 908	서울특별시 강남구 선릉로	135280	6199	127.0511721	37.50050241
11778919	부머스	음식	커피점/카페	커피전문점/카페/다방	서울특별시 성동구 성수동2가 301-51	서울특별시 성동구 성수일로	133120	4782	127.0504792	37.54536929
11770927	카페소금다방	음식	커피점/카페	커피전문점/카페/다방	서울특별시 강서구 염창동 271	서울특별시 강서구 공항대로61길	157863	7554	126.866364	37.5527105
11783074	라운드어바웃커피	음식	커피점/카페	커피전문점/카페/다방	서울특별시 동대문구 장안동 358-26	서울특별시 동대문구 장한로12길	130100	2642	127.0706275	37.56501929
11785386	난타5000	음식	패스트푸드	패스트푸드	서울특별시 강동구 암사동 511-20	서울특별시 강동구 상암로	134050	5242	127.1263762	37.55044245
11767752	역다방	음식	커피점/카페	커피전문점/카페/다방	서울특별시 성동구 행당동 168-151	서울특별시 성동구 왕십리광장로	133070	4750	127.0383792	37.56143616
11760915	바르닭치킨	음식	닭/오리요리	후라이드/양념치킨	서울특별시 관악구 봉천동 35-1	서울특별시 관악구 관악로24길	151050	8737	126.956369	37.48466435
11783921	팔자좀피자	음식	패스트푸드	피자전문	서울특별시 영등포구 영등포동3가 14-1	서울특별시 영등포구 영중로10길	150033	7304	126.9089405	37.51851166
11762301	쥬씨	음식	커피점/카페	생과일주스전문점	서울특별시 은평구 구산동 1-1	서울특별시 은평구 연서로	122819	3412	126.9168195	37.61114772
11785748	떼루와종각점	음식	커피점/카페	커피전문점/카페/다방	서울특별시 종로구 관철동 43-1	서울특별시 종로구 종로8길	110111	3189	126.9840868	37.56946928
11774841	순진김밥	음식	분식	라면김밥분식	서울특별시 마포구 성산동 244-6	서울특별시 마포구 성미산로	121250	3968	126.9123792	37.55903614
11766296	커피베이	음식	커피점/카페	커피전문점/카페/다방	서울특별시 성북구 정릉동 302	서울특별시 성북구 보국문로	136100	2709	127.0083203	37.6114926
11756025	카페1993	음식	커피점/카페	커피전문점/카페/다방	서울특별시 종로구 익선동 131-2	서울특별시 종로구 삼일대로30길	110340	3133	126.9894794	37.57418296
11749849	카페책속의한줄	음식	커피점/카페	커피전문점/카페/다방	서울특별시 마포구 연남동 561-47	서울특별시 마포구 연남로3길	121869	3988	126.9206634	37.56144585
11773264	달포떡볶이	음식	분식	떡볶이전문	서울특별시 은평구 구산동 16-84	서울특별시 은평구 갈현로	122819	3414	126.9112535	37.60991615
11767389	피자알볼로	음식	패스트푸드	피자전문	서울특별시 광진구 중곡동 47-14	서울특별시 광진구 능동로	143220	4927	127.0811297	37.55966817
11750988	카페5	음식	커피점/카페	커피전문점/카페/다방	서울특별시 강남구 신사동 662-17	서울특별시 강남구 언주로172길	135897	6018	127.0390721	37.52686855
11782501	네네치킨	음식	닭/오리요리	후라이드/양념치킨	서울특별시 용산구 이촌동 209-8	서울특별시 용산구 이촌로	140030	4374	126.9548215	37.5275496
11751936	PitaPat	음식	커피점/카페	커피전문점/카페/다방	서울특별시 송파구 가락동 160-7	서울특별시 송파구 중대로	138160	5818	127.127776	37.50119198
11758462	부띠끄호텔엑스와이엠	음식	커피점/카페	커피전문점/카페/다방	서울특별시 강남구 삼성동 168-16	서울특별시 강남구 테헤란로	135090	6173	127.064246	37.50957221
11768581	라팡	음식	제과제빵떡케익	제과점	서울특별시 강남구 대치동 921-4	서울특별시 강남구 선릉로	135280	6199	127.0517646	37.49926371
11781035	카페쉐마	음식	커피점/카페	커피전문점/카페/다방	서울특별시 용산구 서빙고동 180	서울특별시 용산구 녹사평대로11길	140240	4384	126.9934335	37.52092892
11757032	카라&엘리사	음식	커피점/카페	커피전문점/카페/다방	서울특별시 종로구 창신동 327-2	서울특별시 종로구 지봉로	110540	3121	127.0152674	37.57251771
11764695	국수집	음식	분식	국수/만두/칼국수	서울특별시 금천구 시흥동 830-17	서울특별시 금천구 금하로25길	153030	8574	126.9097384	37.45118368
11784916	커피베이COFFEEBAY	음식	커피점/카페	커피전문점/카페/다방	서울특별시 영등포구 도림동 251-12	서울특별시 영등포구 도신로	150833	7374	126.9005292	37.50660295
11754708	파리바게뜨대치하얏트점	음식	제과제빵떡케익	제과점	서울특별시 강남구 대치동 1001	서울특별시 강남구 영동대로	135280	6174	127.0644529	37.50749241
11751029	꿈꾸는리틀피플	음식	커피점/카페	커피전문점/카페/다방	서울특별시 성북구 정릉동 16-314	서울특별시 성북구 정릉로32길	136100	2816	127.0167458	37.60212924
11783140	현스티	음식	커피점/카페	커피전문점/카페/다방	서울특별시 종로구 필운동 49	서울특별시 종로구 사직로9길	110044	3027	126.9676839	37.57768863
11758888	만두집	음식	분식	국수/만두/칼국수	서울특별시 강남구 역삼동 765-5	서울특별시 강남구 선릉로63길	135080	6218	127.0517219	37.49727203
11754211	킹제임스	음식	커피점/카페	커피전문점/카페/다방	서울특별시 강남구 청담동 7-20	서울특별시 강남구 삼성로	135949	6063	127.0476865	37.52293765
11770579	피자랑	음식	패스트푸드	피자전문	서울특별시 서대문구 북아현동 130-3	서울특별시 서대문구 북아현로2길	120819	3757	126.9569736	37.55904207
11773924	장여사김밥	음식	분식	라면김밥분식	서울특별시 서초구 우면동 787	서울특별시 서초구 양재대로2길	137140	6768	127.0244462	37.45971911
11765379	로스팅까페	음식	커피점/카페	커피전문점/카페/다방	서울특별시 서초구 서초동 1310-5	서울특별시 서초구 서운로	137070	6613	127.023381	37.49988847
11758375	킹스빈구로디지털점	음식	커피점/카페	커피전문점/카페/다방	서울특별시 구로구 구로동 170-10	서울특별시 구로구 디지털로33길	152050	8377	126.8944921	37.48724621
11786516	슈퍼커피홍대입구점	음식	커피점/카페	커피전문점/카페/다방	서울특별시 마포구 서교동 486	서울특별시 마포구 홍익로	121837	4055	126.9237401	37.553716
11771905	AtoZcafe	음식	커피점/카페	커피전문점/카페/다방	서울특별시 마포구 상암동 1603	서울특별시 마포구 성암로	121904	3925	126.8909658	37.5811105
11768802	치킨처럼	음식	닭/오리요리	후라이드/양념치킨	서울특별시 서초구 서초동 1366-15	서울특별시 서초구 남부순환로	137070	6735	127.0326934	37.4846201
11780163	옵스	음식	제과제빵떡케익	제과점	서울특별시 중구 소공동 1	서울특별시 중구 을지로	100721	4533	126.9809849	37.56533379
11767115	엘씨엘로	음식	커피점/카페	커피전문점/카페/다방	서울특별시 관악구 봉천동 40-85	서울특별시 관악구 관악로	151050	8727	126.9563123	37.48630377
11750160	어투썸프레이스	음식	커피점/카페	커피전문점/카페/다방	서울특별시 마포구 상암동 1585	서울특별시 마포구 월드컵북로60길	121921	3921	126.8863008	37.58341827
11785131	해누리카페	음식	커피점/카페	커피전문점/카페/다방	서울특별시 성동구 마장동 527-2	서울특별시 성동구 청계천로	133814	4704	127.0334213	37.57021691
11754322	BHC치킨이문점	음식	닭/오리요리	후라이드/양념치킨	서울특별시 동대문구 이문동 255-153	서울특별시 동대문구 이문로42길	130080	2413	127.0625841	37.60076322
11757250	코코부코	음식	커피점/카페	커피전문점/카페/다방	서울특별시 마포구 망원동 396-29	서울특별시 마포구 희우정로	121230	4017	126.904324	37.55260934
11778118	카페사부작	음식	커피점/카페	커피전문점/카페/다방	서울특별시 영등포구 영등포동6가 8-3	서울특별시 영등포구 영중로	150036	7251	126.9046748	37.52167087
11776461	주스탐	음식	커피점/카페	커피전문점/카페/다방	서울특별시 중구 태평로2가 361-1	서울특별시 중구 세종대로	100102	4515	126.9765471	37.56454754
11767807	이디아신방화중앙점	음식	커피점/카페	커피전문점/카페/다방	서울특별시 강서구 방화동 193-11	서울특별시 강서구 방화대로34길	157220	7595	126.8213972	37.57085843
11770090	롯데가산미스터톡톡	음식	분식	라면김밥분식	서울특별시 금천구 가산동 60-19	서울특별시 금천구 벚꽃로	153769	8511	126.8846229	37.47948554
11786494	메이커스	음식	커피점/카페	커피전문점/카페/다방	서울특별시 종로구 낙원동 132-2	서울특별시 종로구 돈화문로11길	110320	3139	126.9895156	37.57234514
11766241	쥬씨성수아이티점	음식	커피점/카페	생과일주스전문점	서울특별시 성동구 성수동2가 280-21	서울특별시 성동구 광나루로6길	133120	4799	127.0632829	37.54679609
11786512	이야기1.5팩토리	음식	제과제빵떡케익	제과점	서울특별시 관악구 봉천동 890-14	서울특별시 관악구 양녕로6길	151050	8748	126.9475283	37.4845589
11764436	평화의공원연못휴게소	음식	커피점/카페	커피전문점/카페/다방	서울특별시 마포구 성산동 390-1	서울특별시 마포구 월드컵로	121250	3901	126.897886	37.56326275
11767824	카페늘봄	음식	커피점/카페	커피전문점/카페/다방	서울특별시 서초구 서초동 380	서울특별시 서초구 남부순환로340길	137070	6756	127.0249927	37.48204285
11764062	카페해밀	음식	커피점/카페	커피전문점/카페/다방	서울특별시 관악구 신림동 611-6	서울특별시 관악구 법원단지길	151879	8852	126.9199397	37.47428122
11770560	제2북카페	음식	커피점/카페	커피전문점/카페/다방	서울특별시 영등포구 당산동3가 560	서울특별시 영등포구 선유동1로	150804	7256	126.8944701	37.52861292
11765724	올리브리사	음식	커피점/카페	커피전문점/카페/다방	서울특별시 종로구 익선동 148	서울특별시 종로구 돈화문로11나길	110340	3133	126.9901614	37.57398155
11778149	쥬씨	음식	분식	라면김밥분식	서울특별시 중랑구 망우동 403-60	서울특별시 중랑구 용마산로	131230	2181	127.100314	37.59549742
11754568	공수간	음식	분식	라면김밥분식	서울특별시 광진구 화양동 16-1	서울특별시 광진구 군자로	143915	5008	127.0701459	37.5463908
11763924	케이엔케이애프앤비	음식	패스트푸드	패스트푸드	서울특별시 노원구 중계동 137-3	서울특별시 노원구 한글비석로20길	139220	1662	127.0750916	37.66161892
11761476	연남식당	음식	분식	라면김밥분식	서울특별시 마포구 연남동 487-291	서울특별시 마포구 성미산로	121868	3986	126.9181089	37.56120622
11777857	허갈닭강정	음식	닭/오리요리	후라이드/양념치킨	서울특별시 종로구 행촌동 171-1	서울특별시 종로구 사직로	110091	3029	126.9612376	37.57311787
11770135	카페루	음식	커피점/카페	커피전문점/카페/다방	서울특별시 서대문구 홍제동 286-1	서울특별시 서대문구 포방터길	120090	3617	126.9487415	37.59794794
11774617	POCOPOCO	음식	분식	라면김밥분식	서울특별시 금천구 시흥동 796-38	서울특별시 금천구 독산로36길	153030	8565	126.9086659	37.4612115
11765895	충무교자	음식	분식	국수/만두/칼국수	서울특별시 중구 충무로3가 25-16	서울특별시 중구 수표로6길	100013	4555	126.9915327	37.56295551
11764642	파이데이3.14	음식	패스트푸드	패스트푸드	서울특별시 강북구 수유동 205	서울특별시 강북구 삼각산로	142771	1042	127.0195328	37.64259092
11785280	맨발떡볶이	음식	분식	떡볶이전문	서울특별시 서초구 반포동 1-8	서울특별시 서초구 신반포로	137765	6506	126.9982966	37.50833753
11754405	미스터피자	음식	패스트푸드	피자전문	서울특별시 서대문구 홍제동 274-36	서울특별시 서대문구 세검정로	120090	3623	126.9476459	37.59373034
11775116	쥬씨강동구청역점	음식	커피점/카페	커피전문점/카페/다방	서울특별시 강동구 성내동 320-7	서울특별시 강동구 천호옛길	134030	5392	127.1214132	37.53070857
11765897	센트코리아띠아모한양대HK점	음식	커피점/카페	커피전문점/카페/다방	서울특별시 성동구 행당동 17	서울특별시 성동구 왕십리로	133791	4763	127.0424353	37.55847765
11780116	요요프레쉬티바	음식	커피점/카페	커피전문점/카페/다방	서울특별시 광진구 자양동 855	서울특별시 광진구 능동로	143190	5096	127.0678609	37.5326768
11764192	카페보바타임	음식	커피점/카페	커피전문점/카페/다방	서울특별시 종로구 청진동 70	서울특별시 종로구 종로	110130	3159	126.9814178	37.57095102
11786436	카페워너비	음식	커피점/카페	커피전문점/카페/다방	서울특별시 영등포구 양평동4가 22-1	서울특별시 영등포구 선유로47길	150866	7209	126.8950037	37.53539374
11762350	cafemani	음식	커피점/카페	커피전문점/카페/다방	서울특별시 관악구 신림동 1738-1	서울특별시 관악구 난곡로	151015	8860	126.9194331	37.4639235
11776890	쥬씨	음식	커피점/카페	커피전문점/카페/다방	서울특별시 강서구 화곡동 897-15	서울특별시 강서구 곰달래로	157010	7781	126.8479754	37.53051121
11749509	가마로강정	음식	닭/오리요리	후라이드/양념치킨	서울특별시 관악구 신림동 246-49	서울특별시 관악구 대학길	151859	8814	126.9377925	37.46860424
11785151	후아나	음식	커피점/카페	커피전문점/카페/다방	서울특별시 노원구 월계동 56	서울특별시 노원구 석계로1길	139050	1902	127.0637126	37.61553123
11787095	미니베이커리	음식	제과제빵떡케익	제과점	서울특별시 서초구 반포동 19-4	서울특별시 서초구 신반포로	137040	6545	127.0068163	37.50642716
11770589	쥬시	음식	커피점/카페	커피전문점/카페/다방	서울특별시 금천구 시흥동 911	서울특별시 금천구 금하로	153030	8644	126.9086691	37.45087646
11786529	버드스틱	음식	제과제빵떡케익	제과점	서울특별시 중구 남창동 227-2	서울특별시 중구 소월로	100806	4635	126.9766422	37.55677237
11769242	셀렉토커피	음식	커피점/카페	커피전문점/카페/다방	서울특별시 영등포구 양평동2가 29-23	서울특별시 영등포구 영등포로	150102	7275	126.8851933	37.52326364
11765657	엽이네김밥	음식	분식	라면김밥분식	서울특별시 영등포구 양평동3가 102	서울특별시 영등포구 선유로33길	150103	7270	126.8883963	37.5262132
11768775	밀크앤허니	음식	제과제빵떡케익	제과점	서울특별시 성북구 하월곡동 230	서울특별시 성북구 종암로	136735	2734	127.0309775	37.60504918
11766511	동대문엽기떡볶이묵동점	음식	분식	떡볶이전문	서울특별시 중랑구 묵동 294-6	서울특별시 중랑구 공릉로	131140	2031	127.0788602	37.61527201
11755435	스케치	음식	분식	라면김밥분식	서울특별시 종로구 부암동 260-13	서울특별시 종로구 창의문로	110817	3020	126.9650173	37.59284776
11760574	국수랑	음식	분식	국수/만두/칼국수	서울특별시 구로구 개봉동 126-37	서울특별시 구로구 고척로	152090	8235	126.8482138	37.50175237
11754151	심가네김밥	음식	분식	라면김밥분식	서울특별시 강동구 천호동 336-27	서울특별시 강동구 구천면로13길	134020	5245	127.1228942	37.5433704
11748346	둘둘말은김밥	음식	분식	라면김밥분식	서울특별시 송파구 풍납동 142-7	서울특별시 송파구 바람드리길	138040	5518	127.1198632	37.53744593
11771631	라정찰보리빵호두과자	음식	제과제빵떡케익	제과점	서울특별시 강남구 역삼동 796-29	서울특별시 강남구 논현로63길	135080	6257	127.0390991	37.49299814
11770600	카페일루오고	음식	커피점/카페	커피전문점/카페/다방	서울특별시 성북구 안암동3가 132-1	서울특별시 성북구 인촌로16길	136073	2853	127.0244963	37.58620008
11752774	주스식스금천독산로점	음식	커피점/카페	커피전문점/카페/다방	서울특별시 금천구 시흥동 852-30	서울특별시 금천구 독산로	153030	8622	126.9048767	37.45905898
11759507	다사랑치킨2	음식	닭/오리요리	후라이드/양념치킨	서울특별시 종로구 관철동 13-8	서울특별시 종로구 삼일대로17길	110111	3190	126.9864766	37.56938169
11780912	홍코너	음식	분식	라면김밥분식	서울특별시 강동구 암사동 496-14	서울특별시 강동구 상암로11길	134050	5264	127.1289018	37.55028991
11753192	탁배기집	음식	분식	라면김밥분식	서울특별시 관악구 신림동 1546-2	서울특별시 관악구 호암로22길	151897	8819	126.9355767	37.46861133
11763880	베뉴지커피숍	음식	커피점/카페	커피전문점/카페/다방	서울특별시 종로구 관수동 124	서울특별시 종로구 청계천로	110420	3192	126.9907321	37.5685982
11775855	더좋은생각	음식	커피점/카페	커피전문점/카페/다방	서울특별시 광진구 구의동 212-15	서울특별시 광진구 광나루로52길	143200	5035	127.0934633	37.54035486
11764531	고릴라버거앤컵밥	음식	패스트푸드	패스트푸드	서울특별시 강동구 천호동 323-6	서울특별시 강동구 올림픽로	134020	5244	127.1257284	37.54583327
11780078	카페드비반트	음식	커피점/카페	커피전문점/카페/다방	서울특별시 중구 쌍림동 25-16	서울특별시 중구 퇴계로53길	100400	4560	127.0039589	37.56396204
11776083	로드리스베이커리	음식	제과제빵떡케익	제과점	서울특별시 은평구 녹번동 281	서울특별시 은평구 통일로	122020	3370	126.9379595	37.59963546
11756459	델리시우	음식	제과제빵떡케익	제과점	서울특별시 마포구 공덕동 476	서울특별시 마포구 백범로	121862	4148	126.9482315	37.54485421
11776962	카페위안	음식	커피점/카페	커피전문점/카페/다방	서울특별시 마포구 서교동 370-12	서울특별시 마포구 양화로16길	121893	4039	126.9200304	37.55276306
11784577	탐앤탐스	음식	커피점/카페	커피전문점/카페/다방	서울특별시 광진구 광장동 571-1	서울특별시 광진구 광나루로	143815	4974	127.096749	37.5409477
11759633	김밥사랑	음식	분식	라면김밥분식	서울특별시 마포구 염리동 9-129	서울특별시 마포구 대흥로30길	121870	4113	126.9467358	37.55624806
11782864	삼성웰스토리세스코카페	음식	커피점/카페	커피전문점/카페/다방	서울특별시 강동구 상일동 501-1	서울특별시 강동구 상일로10길	134100	5288	127.1741249	37.55035357
11760115	이디야커피	음식	커피점/카페	커피전문점/카페/다방	서울특별시 강남구 역삼동 721-9	서울특별시 강남구 언주로81길	135080	6222	127.0428615	37.50034526
11785557	제이앤와이카페	음식	커피점/카페	커피전문점/카페/다방	서울특별시 동대문구 용두동 27-26	서울특별시 동대문구 고산자로30길	130817	2560	127.03904	37.57608353
11760936	가마솥치킨	음식	닭/오리요리	후라이드/양념치킨	서울특별시 노원구 상계동 1113-58	서울특별시 노원구 동일로241길	139200	1606	127.0547266	37.67662184
11769715	풍년땅콩제과	음식	제과제빵떡케익	제과점	서울특별시 종로구 창신동 519-1	서울특별시 종로구 종로	110540	3119	127.0122772	37.57178091
11764004	응암칼국수	음식	분식	국수/만두/칼국수	서울특별시 은평구 응암동 126-37	서울특별시 은평구 응암로21길	122010	3456	126.9158628	37.59434371
11781848	지앤지카페	음식	커피점/카페	커피전문점/카페/다방	서울특별시 강남구 삼성동 90-14	서울특별시 강남구 영동대로	135090	6081	127.0596717	37.51624875
11754890	커피식탁	음식	커피점/카페	커피전문점/카페/다방	서울특별시 마포구 연남동 361-8	서울특별시 마포구 연남로	121866	3976	126.918505	37.56668816
11761513	더치폴커피	음식	커피점/카페	커피전문점/카페/다방	서울특별시 마포구 망원동 424	서울특별시 마포구 포은로	121230	3964	126.9040826	37.55827463
11749932	우면동다방	음식	커피점/카페	커피전문점/카페/다방	서울특별시 서초구 우면동 686	서울특별시 서초구 성촌1길	137901	6765	127.0213541	37.46539725
11749418	피자랑	음식	패스트푸드	피자전문	서울특별시 성동구 사근동 204-13	서울특별시 성동구 사근동11길	133817	4761	127.0479345	37.56127032
11770120	토프레소	음식	커피점/카페	커피전문점/카페/다방	서울특별시 구로구 오류동 338	서울특별시 구로구 고척로	152783	8253	126.8413533	37.50000033
11753967	머피커피해피	음식	커피점/카페	커피전문점/카페/다방	서울특별시 동작구 상도동 306-4	서울특별시 동작구 국사봉7길	156030	7043	126.9315365	37.49749859
11750172	그리다꿈구로점	음식	커피점/카페	커피전문점/카페/다방	서울특별시 구로구 구로동 826	서울특별시 구로구 디지털로26길	152776	8393	126.8976897	37.48202298
11766220	동창야채닭갈비	음식	닭/오리요리	닭갈비전문	서울특별시 중랑구 중화동 312-19	서울특별시 중랑구 중랑역로	131120	2101	127.0776808	37.60070195
11751051	쥬씨	음식	분식	라면김밥분식	서울특별시 중구 수표동 56-15	서울특별시 중구 을지로9길	100230	4542	126.9888518	37.5670143
11777420	코코호도	음식	제과제빵떡케익	제과점	서울특별시 강남구 수서동 713	서울특별시 강남구 밤고개로1길	135539	6349	127.1018421	37.48801336
11758522	스케네브라운	음식	커피점/카페	커피전문점/카페/다방	서울특별시 서대문구 홍은동 403-21	서울특별시 서대문구 가좌로	120100	3663	126.928795	37.57929738
11785571	아리아	음식	커피점/카페	커피전문점/카페/다방	서울특별시 중구 산림동 293-1	서울특별시 중구 을지로	100340	4544	126.9949884	37.56691353
11783979	갓치킨	음식	닭/오리요리	후라이드/양념치킨	서울특별시 양천구 신정동 878-11	서울특별시 양천구 신정중앙로	158070	7939	126.8586166	37.52714554
11782664	카페MJ19.4	음식	커피점/카페	커피전문점/카페/다방	서울특별시 강남구 도곡동 457-5	서울특별시 강남구 논현로26길	135270	6300	127.046187	37.48341426
11770324	가스통	음식	분식	라면김밥분식	서울특별시 은평구 불광동 369-17	서울특별시 은평구 연서로31길	122040	3342	126.9237425	37.62117646
11768445	슈퍼피맥	음식	패스트푸드	피자전문	서울특별시 동작구 흑석동 86-73	서울특별시 동작구 서달로10길	156859	6980	126.9616524	37.50650732
11786026	생국수本가	음식	분식	국수/만두/칼국수	서울특별시 종로구 종로3가 166	서울특별시 종로구 종로	110123	3193	126.9943436	37.5702509
11761429	다락	음식	커피점/카페	커피전문점/카페/다방	서울특별시 중랑구 신내동 666	서울특별시 중랑구 봉화산로	131130	2076	127.0946891	37.60644715
11774448	카페다온	음식	커피점/카페	커피전문점/카페/다방	서울특별시 강북구 미아동 3-30	서울특별시 강북구 오패산로30길	142100	1233	127.0350659	37.61645379
11773772	신전떡볶이양재점	음식	분식	떡볶이전문	서울특별시 서초구 양재동 291-18	서울특별시 서초구 동산로	137130	6781	127.0459789	37.47221241
11776902	카페다니엘	음식	커피점/카페	커피전문점/카페/다방	서울특별시 영등포구 대림동 686-11	서울특별시 영등포구 대림로34길	150070	7401	126.8998484	37.49904585
11756181	BHC치킨	음식	닭/오리요리	후라이드/양념치킨	서울특별시 서대문구 남가좌동 338-4	서울특별시 서대문구 증가로	120120	3692	126.9241282	37.57710146
11785365	노란코끼리	음식	커피점/카페	커피전문점/카페/다방	서울특별시 광진구 구의동 243-22	서울특별시 광진구 아차산로	143200	5044	127.0884687	37.53792862
11762774	쥬스식스구로디지털점	음식	커피점/카페	커피전문점/카페/다방	서울특별시 구로구 구로동 212-13	서울특별시 구로구 디지털로	152775	8381	126.8935778	37.48330007
11766432	김밥옆구리	음식	분식	라면김밥분식	서울특별시 동작구 상도동 299-48	서울특별시 동작구 국사봉길	156030	7052	126.9303541	37.49714549
11780111	SaintPaul	음식	커피점/카페	커피전문점/카페/다방	서울특별시 서초구 방배동 1020-9	서울특별시 서초구 효령로34길	137060	6705	127.0006106	37.47899178
11784659	미스터홈즈베이크하우스코리아	음식	제과제빵떡케익	제과점	서울특별시 강남구 신사동 524-16	서울특별시 강남구 압구정로10길	135888	6028	127.0219463	37.52142978
11766080	마피아커피동평화상가점	음식	커피점/카페	커피전문점/카페/다방	서울특별시 중구 신당동 217-92	서울특별시 중구 청계천로	100887	4568	127.0137582	37.56935146
11775350	정글커피로스터	음식	커피점/카페	커피전문점/카페/다방	서울특별시 영등포구 당산동3가 396-20	서울특별시 영등포구 양산로19길	150804	7261	126.8950125	37.52635639
11748099	파리바게뜨	음식	제과제빵떡케익	제과점	서울특별시 종로구 신교동 58-1	서울특별시 종로구 자하문로	110032	3035	126.9699245	37.58351089
11767565	요이5	음식	커피점/카페	커피전문점/카페/다방	서울특별시 강남구 대치동 916-36	서울특별시 강남구 삼성로69길	135280	6201	127.0572153	37.50110044
11774815	브레드앤밀	음식	제과제빵떡케익	제과점	서울특별시 동대문구 장안동 331-12	서울특별시 동대문구 장한로28길	130100	2524	127.074313	37.57270715
11766083	도노커피	음식	커피점/카페	커피전문점/카페/다방	서울특별시 영등포구 여의도동 1	서울특별시 영등포구 의사당대로	150701	7233	126.9163908	37.53289782
11784192	커피베이한국관광공사	음식	커피점/카페	커피전문점/카페/다방	서울특별시 중구 다동 10	서울특별시 중구 청계천로	100180	4521	126.9816094	37.56851986
11765115	버거앤프라이즈	음식	패스트푸드	패스트푸드	서울특별시 동작구 노량진동 124-7	서울특별시 동작구 만양로14길	156050	6913	126.9459521	37.51223409
11779417	폴바셋한국경제신문사점	음식	커피점/카페	커피전문점/카페/다방	서울특별시 중구 중림동 441	서울특별시 중구 청파로	100791	4505	126.9670923	37.55986088
11769404	바사칸	음식	분식	라면김밥분식	서울특별시 영등포구 양평동2가 1-1	서울특별시 영등포구 선유서로	150102	7278	126.8848328	37.52163836
11700423	파파호두	음식	제과제빵떡케익	제과점	서울특별시 도봉구 창동 581-3	서울특별시 도봉구 덕릉로59가길	132040	1470	127.0386526	37.63963069
11707694	스타벅스종암점	음식	커피점/카페	커피전문점/카페/다방	서울특별시 성북구 종암동 3-686	서울특별시 성북구 종암로	136864	2797	127.0339835	37.60118133
11765693	한국통닭	음식	닭/오리요리	후라이드/양념치킨	서울특별시 종로구 낙원동 177	서울특별시 종로구 수표로	110320	3139	126.9893969	37.57107366
11711225	멕시칸치킨쌍문한양점	음식	닭/오리요리	후라이드/양념치킨	서울특별시 도봉구 쌍문동 59-5	서울특별시 도봉구 시루봉로	132746	1434	127.0293889	37.65580948
11760184	오리지널시카고	음식	패스트푸드	피자전문	서울특별시 용산구 용산동2가 1-3	서울특별시 용산구 남산공원길	140833	4340	126.9878557	37.55111136
11751985	커피니	음식	커피점/카페	커피전문점/카페/다방	서울특별시 종로구 숭인동 1376	서울특별시 종로구 난계로29길	110550	3116	127.0222154	37.57446766
11766922	투썸플레이스	음식	커피점/카페	커피전문점/카페/다방	서울특별시 강남구 논현동 200-7	서울특별시 강남구 강남대로	135010	6120	127.0247747	37.50490083
11784022	카페사켈라	음식	커피점/카페	커피전문점/카페/다방	서울특별시 양천구 신정동 89-16	서울특별시 양천구 신목로12길	158070	8015	126.8743339	37.52093506
11731801	정성본천호점	음식	분식	국수/만두/칼국수	서울특별시 강동구 천호동 455	서울특별시 강동구 천호대로	134020	5248	127.1237198	37.5385739
11774392	파스쿠찌	음식	커피점/카페	커피전문점/카페/다방	서울특별시 강남구 청담동 124-3	서울특별시 강남구 도산대로	135957	6012	127.0489305	37.52474978
11759794	올라카페	음식	커피점/카페	커피전문점/카페/다방	서울특별시 마포구 망원동 380-22	서울특별시 마포구 월드컵로13길	121230	4013	126.908866	37.55546264
11760452	카페7그램	음식	커피점/카페	커피전문점/카페/다방	서울특별시 마포구 상암동 1584	서울특별시 마포구 월드컵북로60길	121835	3921	126.8847556	37.58225937
11781352	또와분식	음식	분식	라면김밥분식	서울특별시 용산구 신창동 96-1	서울특별시 용산구 효창원로	140060	4357	126.9532524	37.53539282
11780931	뚜레쥬르	음식	제과제빵떡케익	제과점	서울특별시 중랑구 상봉동 115-4	서울특별시 중랑구 망우로	131220	2137	127.085156	37.59601163
11754760	케이375	음식	커피점/카페	커피전문점/카페/다방	서울특별시 광진구 화양동 3-75	서울특별시 광진구 아차산로33길	143914	5011	127.0712499	37.5431467
11785953	파우치커피올림픽파크점	음식	커피점/카페	커피전문점/카페/다방	서울특별시 강동구 성내동 466-3	서울특별시 강동구 성내로14길	134030	5402	127.1263208	37.52609552
11781765	리뉴올	음식	패스트푸드	패스트푸드	서울특별시 마포구 연남동 223-93	서울특별시 마포구 성미산로29안길	121865	3980	126.923639	37.56546462
11786523	스탑바이	음식	패스트푸드	패스트푸드	서울특별시 마포구 중동 81-1	서울특별시 마포구 성암로	121877	3934	126.9033587	37.57368463
11783187	TeaCup	음식	닭/오리요리	후라이드/양념치킨	서울특별시 중랑구 면목동 51-19	서울특별시 중랑구 용마산로90길	131200	2192	127.0965698	37.58766576
11773379	스위밍풀	음식	커피점/카페	커피전문점/카페/다방	서울특별시 서대문구 대현동 90-58	서울특별시 서대문구 이화여대1길	120809	3766	126.9435969	37.55731929
11758060	잉글블럭&카페	음식	커피점/카페	커피전문점/카페/다방	서울특별시 송파구 거여동 290-1	서울특별시 송파구 양산로	138110	5779	127.1437801	37.490235
11784622	더블유카페	음식	커피점/카페	커피전문점/카페/다방	서울특별시 강남구 수서동 713	서울특별시 강남구 밤고개로1길	135539	6349	127.1018421	37.48801336
